[
  {
    "code": "A",
    "name": "ARMENIAN GHAT CITY",
    "city": "",
    "state": "",
    "lat": null,
    "lon": null,
    "isMajor": false,
    "aliases": [
      "A",
      "ARMENIAN GHAT CITY",
      "Armenian Ghat City",
      "ARMENIAN GHAT city"
    ]
  },
  {
    "code": "AA",
    "name": "ATARIA",
    "city": "",
    "state": "Uttar Pradesh",
    "lat": 27.172456999999998,
    "lon": 80.861033,
    "isMajor": false,
    "aliases": [
      "AA",
      "ATARIA",
      "Ataria"
    ]
  },
  {
    "code": "AABH",
    "name": "AMBIKA BHAWALI HALT",
    "city": "",
    "state": "",
    "lat": 25.751433665,
    "lon": 84.9690033484,
    "isMajor": false,
    "aliases": [
      "AABH",
      "AMBIKA BHAWALI HALT",
      "Ambika Bhawali Halt"
    ]
  },
  {
    "code": "AACS",
    "name": "M/S AMLAI COLLIERY SDG, AMLAI",
    "city": "",
    "state": "",
    "lat": null,
    "lon": null,
    "isMajor": false,
    "aliases": [
      "AACS",
      "M/S AMLAI COLLIERY SDG, AMLAI",
      "M/s Amlai Colliery Sdg, Amlai"
    ]
  },
  {
    "code": "AADR",
    "name": "ANB AURA",
    "city": "",
    "state": "",
    "lat": 31.670727,
    "lon": 76.110391,
    "isMajor": false,
    "aliases": [
      "AADR",
      "ANB AURA",
      "Anb Aura"
    ]
  },
  {
    "code": "AAG",
    "name": "ANGAR",
    "city": "",
    "state": "",
    "lat": 17.954256,
    "lon": 75.599875,
    "isMajor": false,
    "aliases": [
      "AAG",
      "ANGAR",
      "Angar"
    ]
  },
  {
    "code": "AAH",
    "name": "ITEHAR",
    "city": "",
    "state": "Madhya Pradesh",
    "lat": 26.562635,
    "lon": 78.683783,
    "isMajor": false,
    "aliases": [
      "AAH",
      "ITEHAR",
      "Itehar"
    ]
  },
  {
    "code": "AAK",
    "name": "ANKAIKILA",
    "city": "",
    "state": "",
    "lat": 20.183180430100002,
    "lon": 74.4368553961,
    "isMajor": false,
    "aliases": [
      "AAK",
      "ANKAIKILA",
      "Ankaikila"
    ]
  },
  {
    "code": "AAL",
    "name": "AMLAI",
    "city": "",
    "state": "",
    "lat": 23.173469,
    "lon": 81.593507,
    "isMajor": false,
    "aliases": [
      "AAL",
      "AMLAI",
      "Amlai"
    ]
  },
  {
    "code": "AAM",
    "name": "ANGADIPPURAM",
    "city": "",
    "state": "Kerala",
    "lat": 10.979489000000001,
    "lon": 76.20734300000001,
    "isMajor": false,
    "aliases": [
      "AAM",
      "ANGADIPPURAM",
      "Angadippuram"
    ]
  },
  {
    "code": "AAP",
    "name": "AMBIAPUR",
    "city": "",
    "state": "",
    "lat": 26.515363999999998,
    "lon": 79.826878,
    "isMajor": false,
    "aliases": [
      "AAP",
      "AMBIAPUR",
      "Ambiapur"
    ]
  },
  {
    "code": "AAR",
    "name": "ADESAR",
    "city": "",
    "state": "Gujarat",
    "lat": 23.552978399500002,
    "lon": 70.9720505023,
    "isMajor": false,
    "aliases": [
      "AAR",
      "ADESAR",
      "Adesar"
    ]
  },
  {
    "code": "AAS",
    "name": "ASRANADA",
    "city": "",
    "state": "",
    "lat": 26.397374,
    "lon": 73.30532500000001,
    "isMajor": false,
    "aliases": [
      "AAS",
      "ASRANADA",
      "Asranada"
    ]
  },
  {
    "code": "AASM",
    "name": "ALBION SDG NO.1, MAHUDA",
    "city": "",
    "state": "",
    "lat": null,
    "lon": null,
    "isMajor": false,
    "aliases": [
      "AASM",
      "ALBION SDG NO.1, MAHUDA",
      "Albion Sdg No.1, Mahuda"
    ]
  },
  {
    "code": "AAU",
    "name": "ALAPADU",
    "city": "",
    "state": "",
    "lat": null,
    "lon": null,
    "isMajor": false,
    "aliases": [
      "AAU",
      "ALAPADU",
      "Alapadu"
    ]
  },
  {
    "code": "AAV",
    "name": "AMBAV",
    "city": "",
    "state": "",
    "lat": null,
    "lon": null,
    "isMajor": false,
    "aliases": [
      "AAV",
      "AMBAV",
      "Ambav"
    ]
  },
  {
    "code": "AAY",
    "name": "ARALVAYMOLI",
    "city": "",
    "state": "Tamil Nadu",
    "lat": 8.2494513612,
    "lon": 77.5292646945,
    "isMajor": false,
    "aliases": [
      "AAY",
      "ARALVAYMOLI",
      "Aralvaymoli"
    ]
  },
  {
    "code": "AB",
    "name": "AMBUR",
    "city": "",
    "state": "",
    "lat": 12.782934,
    "lon": 78.721266,
    "isMajor": false,
    "aliases": [
      "AB",
      "AMBUR",
      "Ambur"
    ]
  },
  {
    "code": "ABB",
    "name": "ABADA",
    "city": "",
    "state": "",
    "lat": 22.547877,
    "lon": 88.19939199999999,
    "isMajor": false,
    "aliases": [
      "ABB",
      "ABADA",
      "Abada"
    ]
  },
  {
    "code": "ABBS",
    "name": "BURRAGARH NO.1A, BHAGA",
    "city": "",
    "state": "",
    "lat": null,
    "lon": null,
    "isMajor": false,
    "aliases": [
      "ABBS",
      "BURRAGARH NO.1A, BHAGA",
      "Burragarh No.1a, Bhaga"
    ]
  },
  {
    "code": "ABC",
    "name": "NEW EXPLOSIVE FACTORY",
    "city": "",
    "state": "",
    "lat": null,
    "lon": null,
    "isMajor": false,
    "aliases": [
      "ABC",
      "NEW EXPLOSIVE FACTORY",
      "New Explosive Factory"
    ]
  },
  {
    "code": "ABD",
    "name": "AMBLI ROAD",
    "city": "",
    "state": "",
    "lat": 23.05437,
    "lon": 72.494044,
    "isMajor": false,
    "aliases": [
      "ABD",
      "AMBLI ROAD",
      "Ambli Road",
      "AMBLI road"
    ]
  },
  {
    "code": "ABE",
    "name": "AMBIKESHWAR",
    "city": "",
    "state": "Madhya Pradesh",
    "lat": 26.368567,
    "lon": 77.963828,
    "isMajor": false,
    "aliases": [
      "ABE",
      "AMBIKESHWAR",
      "Ambikeshwar"
    ]
  },
  {
    "code": "ABEO",
    "name": "PATTARAVAKKAM",
    "city": "",
    "state": "",
    "lat": 13.114499981582952,
    "lon": 80.16618146561086,
    "isMajor": false,
    "aliases": [
      "ABEO",
      "PATTARAVAKKAM",
      "Pattaravakkam"
    ]
  },
  {
    "code": "ABFC",
    "name": "AMBARI FALAKATA",
    "city": "",
    "state": "",
    "lat": 26.641553000000002,
    "lon": 88.510593,
    "isMajor": false,
    "aliases": [
      "ABFC",
      "AMBARI FALAKATA",
      "Ambari Falakata"
    ]
  },
  {
    "code": "ABGM",
    "name": "AMBALGRAM",
    "city": "",
    "state": "",
    "lat": null,
    "lon": null,
    "isMajor": false,
    "aliases": [
      "ABGM",
      "AMBALGRAM",
      "Ambalgram"
    ]
  },
  {
    "code": "ABGT",
    "name": "ARABAGATTA HALT",
    "city": "",
    "state": "Karnataka",
    "lat": 13.907468,
    "lon": 76.13497100000001,
    "isMajor": false,
    "aliases": [
      "ABGT",
      "ARABAGATTA HALT",
      "Arabagatta Halt"
    ]
  },
  {
    "code": "ABH",
    "name": "AMBARNATH",
    "city": "",
    "state": "",
    "lat": 19.210382000000003,
    "lon": 73.184756,
    "isMajor": false,
    "aliases": [
      "ABH",
      "AMBARNATH",
      "Ambarnath"
    ]
  },
  {
    "code": "ABHR",
    "name": "BEJDIH NO.1, RADHANAGAR",
    "city": "",
    "state": "",
    "lat": null,
    "lon": null,
    "isMajor": false,
    "aliases": [
      "ABHR",
      "BEJDIH NO.1, RADHANAGAR",
      "Bejdih No.1, Radhanagar"
    ]
  },
  {
    "code": "ABI",
    "name": "AMBATURAI",
    "city": "",
    "state": "",
    "lat": 10.272226,
    "lon": 77.924468,
    "isMajor": false,
    "aliases": [
      "ABI",
      "AMBATURAI",
      "Ambaturai"
    ]
  },
  {
    "code": "ABIF",
    "name": "AMBATURAI",
    "city": "",
    "state": "",
    "lat": 10.272226,
    "lon": 77.924468,
    "isMajor": false,
    "aliases": [
      "ABIF",
      "AMBATURAI",
      "Ambaturai"
    ]
  },
  {
    "code": "ABJK",
    "name": "BOKARO JHARIA NO.2, KHANUDIH",
    "city": "",
    "state": "",
    "lat": null,
    "lon": null,
    "isMajor": false,
    "aliases": [
      "ABJK",
      "BOKARO JHARIA NO.2, KHANUDIH",
      "Bokaro Jharia No.2, Khanudih"
    ]
  },
  {
    "code": "ABKA",
    "name": "AMBIKA KALNA",
    "city": "",
    "state": "West Bengal",
    "lat": 23.211377,
    "lon": 88.353984,
    "isMajor": false,
    "aliases": [
      "ABKA",
      "AMBIKA KALNA",
      "Ambika Kalna"
    ]
  },
  {
    "code": "ABKD",
    "name": "BHOWRAH NO. 5, KHANUDIH",
    "city": "",
    "state": "",
    "lat": null,
    "lon": null,
    "isMajor": false,
    "aliases": [
      "ABKD",
      "BHOWRAH NO. 5, KHANUDIH",
      "Bhowrah No. 5, Khanudih"
    ]
  },
  {
    "code": "ABKH",
    "name": "BHOWRAH NO. 6, KHANUDIH",
    "city": "",
    "state": "",
    "lat": null,
    "lon": null,
    "isMajor": false,
    "aliases": [
      "ABKH",
      "BHOWRAH NO. 6, KHANUDIH",
      "Bhowrah No. 6, Khanudih"
    ]
  },
  {
    "code": "ABKP",
    "name": "AMBIKAPUR",
    "city": "",
    "state": "Chhattisgarh",
    "lat": 23.137032,
    "lon": 83.14510899999999,
    "isMajor": false,
    "aliases": [
      "ABKP",
      "AMBIKAPUR",
      "Ambikapur"
    ]
  },
  {
    "code": "ABLE",
    "name": "AMBALE",
    "city": "",
    "state": "Maharashtra",
    "lat": 18.398719,
    "lon": 74.171511,
    "isMajor": false,
    "aliases": [
      "ABLE",
      "AMBALE",
      "Ambale"
    ]
  },
  {
    "code": "ABLS",
    "name": "ACC BABCOCK, DURGAPUR",
    "city": "",
    "state": "",
    "lat": null,
    "lon": null,
    "isMajor": false,
    "aliases": [
      "ABLS",
      "ACC BABCOCK, DURGAPUR",
      "Acc Babcock, Durgapur"
    ]
  },
  {
    "code": "ABM",
    "name": "AMBAPURAM",
    "city": "",
    "state": "",
    "lat": null,
    "lon": null,
    "isMajor": false,
    "aliases": [
      "ABM",
      "AMBAPURAM",
      "Ambapuram"
    ]
  },
  {
    "code": "ABO",
    "name": "ASTHAL BOHAR",
    "city": "",
    "state": "Haryana",
    "lat": 28.857765,
    "lon": 76.629155,
    "isMajor": false,
    "aliases": [
      "ABO",
      "ASTHAL BOHAR",
      "Asthal Bohar"
    ]
  },
  {
    "code": "ABP",
    "name": "AKBARPUR JN.",
    "city": "",
    "state": "",
    "lat": 26.429818,
    "lon": 82.539073,
    "isMajor": false,
    "aliases": [
      "ABP",
      "AKBARPUR JN.",
      "Akbarpur Jn.",
      "AKBARPUR Junction.",
      "AKBARPUR junction.",
      "AKBARPUR jn."
    ]
  },
  {
    "code": "ABPD",
    "name": "ADVANCE BASE PETROL DEPOT, BHAROLI",
    "city": "",
    "state": "",
    "lat": null,
    "lon": null,
    "isMajor": false,
    "aliases": [
      "ABPD",
      "ADVANCE BASE PETROL DEPOT, BHAROLI",
      "Advance Base Petrol Depot, Bharoli"
    ]
  },
  {
    "code": "ABPK",
    "name": "BHOWRAH BYE PRODUCTS AND COKE OVEN NO.16, KHANUDIH",
    "city": "",
    "state": "",
    "lat": null,
    "lon": null,
    "isMajor": false,
    "aliases": [
      "ABPK",
      "BHOWRAH BYE PRODUCTS AND COKE OVEN NO.16, KHANUDIH",
      "Bhowrah Bye Products And Coke Oven No.16, Khanudih"
    ]
  },
  {
    "code": "ABR",
    "name": "ABU ROAD",
    "city": "",
    "state": "Rajasthan",
    "lat": 24.470775,
    "lon": 72.775695,
    "isMajor": false,
    "aliases": [
      "ABR",
      "ABU ROAD",
      "Abu Road",
      "ABU road"
    ]
  },
  {
    "code": "ABS",
    "name": "ABOHAR",
    "city": "",
    "state": "Punjab",
    "lat": 30.1393834225,
    "lon": 74.19568617739999,
    "isMajor": false,
    "aliases": [
      "ABS",
      "ABOHAR",
      "Abohar"
    ]
  },
  {
    "code": "ABSA",
    "name": "AMBASSA",
    "city": "",
    "state": "Tripura",
    "lat": 23.930507,
    "lon": 91.860783,
    "isMajor": false,
    "aliases": [
      "ABSA",
      "AMBASSA",
      "Ambassa"
    ]
  },
  {
    "code": "ABSB",
    "name": "BALLIHARI NO.11, BAGHA",
    "city": "",
    "state": "",
    "lat": null,
    "lon": null,
    "isMajor": false,
    "aliases": [
      "ABSB",
      "BALLIHARI NO.11, BAGHA",
      "Ballihari No.11, Bagha"
    ]
  },
  {
    "code": "ABSD",
    "name": "223 ABOD SDG, SURANUSSI",
    "city": "",
    "state": "",
    "lat": null,
    "lon": null,
    "isMajor": false,
    "aliases": [
      "ABSD",
      "223 ABOD SDG, SURANUSSI",
      "223 Abod Sdg, Suranussi"
    ]
  },
  {
    "code": "ABSG",
    "name": "ORDINANCE FACTORY SDG, AMBARNATH",
    "city": "",
    "state": "",
    "lat": null,
    "lon": null,
    "isMajor": false,
    "aliases": [
      "ABSG",
      "ORDINANCE FACTORY SDG, AMBARNATH",
      "Ordinance Factory Sdg, Ambarnath"
    ]
  },
  {
    "code": "ABSK",
    "name": "AIR BASE SIDING, KALAI KUNDA",
    "city": "",
    "state": "",
    "lat": null,
    "lon": null,
    "isMajor": false,
    "aliases": [
      "ABSK",
      "AIR BASE SIDING, KALAI KUNDA",
      "Air Base Siding, Kalai Kunda"
    ]
  },
  {
    "code": "ABU",
    "name": "AMBATTUR",
    "city": "",
    "state": "",
    "lat": 13.114305980800001,
    "lon": 80.1525249074,
    "isMajor": false,
    "aliases": [
      "ABU",
      "AMBATTUR",
      "Ambattur"
    ]
  },
  {
    "code": "ABV",
    "name": "AMBUGA",
    "city": "",
    "state": "",
    "lat": null,
    "lon": null,
    "isMajor": false,
    "aliases": [
      "ABV",
      "AMBUGA",
      "Ambuga"
    ]
  },
  {
    "code": "ABW",
    "name": "ABUTARA HALT",
    "city": "",
    "state": "West Bengal",
    "lat": 26.0707762,
    "lon": 89.5868746,
    "isMajor": false,
    "aliases": [
      "ABW",
      "ABUTARA HALT",
      "Abutara Halt"
    ]
  },
  {
    "code": "ABX",
    "name": "AMBARI",
    "city": "",
    "state": "Maharashtra",
    "lat": 19.6893606972,
    "lon": 78.2166847791,
    "isMajor": false,
    "aliases": [
      "ABX",
      "AMBARI",
      "Ambari"
    ]
  },
  {
    "code": "ABY",
    "name": "AMBIVLI",
    "city": "",
    "state": "",
    "lat": 19.267587,
    "lon": 73.17171,
    "isMajor": false,
    "aliases": [
      "ABY",
      "AMBIVLI",
      "Ambivli"
    ]
  },
  {
    "code": "ABZ",
    "name": "ADGOAN BUZURG",
    "city": "",
    "state": "Maharashtra",
    "lat": 21.123876,
    "lon": 76.955924,
    "isMajor": false,
    "aliases": [
      "ABZ",
      "ADGOAN BUZURG",
      "Adgoan Buzurg"
    ]
  },
  {
    "code": "AC",
    "name": "ARMEMIAN GHAT CITY PARCEL",
    "city": "",
    "state": "",
    "lat": null,
    "lon": null,
    "isMajor": false,
    "aliases": [
      "AC",
      "ARMEMIAN GHAT CITY PARCEL",
      "Armemian Ghat City Parcel",
      "ARMEMIAN GHAT city PARCEL"
    ]
  },
  {
    "code": "ACAB",
    "name": "A CABIN, VSPS",
    "city": "",
    "state": "",
    "lat": 22.23969,
    "lon": 84.945577,
    "isMajor": false,
    "aliases": [
      "ACAB",
      "A CABIN, VSPS",
      "A Cabin, Vsps"
    ]
  },
  {
    "code": "ACCG",
    "name": "ACC SIDING",
    "city": "",
    "state": "",
    "lat": null,
    "lon": null,
    "isMajor": false,
    "aliases": [
      "ACCG",
      "ACC SIDING",
      "Acc Siding"
    ]
  },
  {
    "code": "ACCJ",
    "name": "ACC LTD. SDG, JHINKPANI",
    "city": "",
    "state": "",
    "lat": null,
    "lon": null,
    "isMajor": false,
    "aliases": [
      "ACCJ",
      "ACC LTD. SDG, JHINKPANI",
      "Acc Ltd. Sdg, Jhinkpani"
    ]
  },
  {
    "code": "ACCP",
    "name": "ACC LTD SDG, BG PORBANDAR",
    "city": "",
    "state": "",
    "lat": null,
    "lon": null,
    "isMajor": false,
    "aliases": [
      "ACCP",
      "ACC LTD SDG, BG PORBANDAR",
      "Acc Ltd Sdg, Bg Porbandar"
    ]
  },
  {
    "code": "ACCT",
    "name": "INDIAN CABLE CO. SDG, TATANAGAR JN.",
    "city": "",
    "state": "",
    "lat": null,
    "lon": null,
    "isMajor": false,
    "aliases": [
      "ACCT",
      "INDIAN CABLE CO. SDG, TATANAGAR JN.",
      "Indian Cable Co. Sdg, Tatanagar Jn.",
      "INDIAN CABLE CO. SDG, TATANAGAR Junction.",
      "INDIAN CABLE CO. SDG, TATANAGAR junction.",
      "INDIAN CABLE CO. SDG, TATANAGAR jn."
    ]
  },
  {
    "code": "ACD",
    "name": "INDIAN OIL CORPORATION",
    "city": "",
    "state": "",
    "lat": null,
    "lon": null,
    "isMajor": false,
    "aliases": [
      "ACD",
      "INDIAN OIL CORPORATION",
      "Indian Oil Corporation"
    ]
  },
  {
    "code": "ACDA",
    "name": "AJNI CONTAINER DEPOT",
    "city": "",
    "state": "",
    "lat": null,
    "lon": null,
    "isMajor": false,
    "aliases": [
      "ACDA",
      "AJNI CONTAINER DEPOT",
      "Ajni Container Depot"
    ]
  },
  {
    "code": "ACG",
    "name": "ACHEGAON",
    "city": "",
    "state": "",
    "lat": 20.976217,
    "lon": 75.934247,
    "isMajor": false,
    "aliases": [
      "ACG",
      "ACHEGAON",
      "Achegaon"
    ]
  },
  {
    "code": "ACH",
    "name": "ACHAL GANJ",
    "city": "",
    "state": "Uttar Pradesh",
    "lat": 26.444642,
    "lon": 80.54541499999999,
    "isMajor": false,
    "aliases": [
      "ACH",
      "ACHAL GANJ",
      "Achal Ganj"
    ]
  },
  {
    "code": "ACK",
    "name": "ACHARAPAKKAM",
    "city": "",
    "state": "",
    "lat": 12.406776,
    "lon": 79.821722,
    "isMajor": false,
    "aliases": [
      "ACK",
      "ACHARAPAKKAM",
      "Acharapakkam"
    ]
  },
  {
    "code": "ACKF",
    "name": "ACHARAPAKKAM",
    "city": "",
    "state": "",
    "lat": 12.406776,
    "lon": 79.821722,
    "isMajor": false,
    "aliases": [
      "ACKF",
      "ACHARAPAKKAM",
      "Acharapakkam"
    ]
  },
  {
    "code": "ACL",
    "name": "ANCHELI",
    "city": "",
    "state": "Gujarat",
    "lat": 20.845167,
    "lon": 72.944978,
    "isMajor": false,
    "aliases": [
      "ACL",
      "ANCHELI",
      "Ancheli"
    ]
  },
  {
    "code": "ACLA",
    "name": "AMLAI COLLIERY SDG, AMLAI",
    "city": "",
    "state": "",
    "lat": null,
    "lon": null,
    "isMajor": false,
    "aliases": [
      "ACLA",
      "AMLAI COLLIERY SDG, AMLAI",
      "Amlai Colliery Sdg, Amlai"
    ]
  },
  {
    "code": "ACLE",
    "name": "AZIMGANJ CITY",
    "city": "",
    "state": "West Bengal",
    "lat": 24.237941,
    "lon": 88.25887100000001,
    "isMajor": false,
    "aliases": [
      "ACLE",
      "AZIMGANJ CITY",
      "Azimganj City",
      "AZIMGANJ city"
    ]
  },
  {
    "code": "ACN",
    "name": "ADHICHCHANUR",
    "city": "",
    "state": "",
    "lat": 12.05415,
    "lon": 79.182478,
    "isMajor": false,
    "aliases": [
      "ACN",
      "ADHICHCHANUR",
      "Adhichchanur"
    ]
  },
  {
    "code": "ACND",
    "name": "ACHARYA NARENDRA DEV NAGAR",
    "city": "",
    "state": "",
    "lat": 26.774576,
    "lon": 82.156997,
    "isMajor": false,
    "aliases": [
      "ACND",
      "ACHARYA NARENDRA DEV NAGAR",
      "Acharya Narendra Dev Nagar"
    ]
  },
  {
    "code": "ACPR",
    "name": "ARCHIPATHAR HALT",
    "city": "",
    "state": "",
    "lat": null,
    "lon": null,
    "isMajor": false,
    "aliases": [
      "ACPR",
      "ARCHIPATHAR HALT",
      "Archipathar Halt"
    ]
  },
  {
    "code": "ACS",
    "name": "ADITHYA CEMENT SIDING - SHAMBHUPURA",
    "city": "",
    "state": "",
    "lat": null,
    "lon": null,
    "isMajor": false,
    "aliases": [
      "ACS",
      "ADITHYA CEMENT SIDING - SHAMBHUPURA",
      "Adithya Cement Siding - Shambhupura"
    ]
  },
  {
    "code": "ACSG",
    "name": "DCOS SDG, DAHOD",
    "city": "",
    "state": "",
    "lat": null,
    "lon": null,
    "isMajor": false,
    "aliases": [
      "ACSG",
      "DCOS SDG, DAHOD",
      "Dcos Sdg, Dahod"
    ]
  },
  {
    "code": "ACSK",
    "name": "ANGARPATHRA COLLIERY SIDING KATRASGARH",
    "city": "",
    "state": "",
    "lat": null,
    "lon": null,
    "isMajor": false,
    "aliases": [
      "ACSK",
      "ANGARPATHRA COLLIERY SIDING KATRASGARH",
      "Angarpathra Colliery Siding Katrasgarh"
    ]
  },
  {
    "code": "ACSN",
    "name": "M/S ASSOCIATED CEMENT CO. LTD. SDG, NOWROZABAD",
    "city": "",
    "state": "",
    "lat": null,
    "lon": null,
    "isMajor": false,
    "aliases": [
      "ACSN",
      "M/S ASSOCIATED CEMENT CO. LTD. SDG, NOWROZABAD",
      "M/s Associated Cement Co. Ltd. Sdg, Nowrozabad"
    ]
  },
  {
    "code": "ACSP",
    "name": "ADITYA CEMENT-SHAMBHUPRA",
    "city": "",
    "state": "",
    "lat": null,
    "lon": null,
    "isMajor": false,
    "aliases": [
      "ACSP",
      "ADITYA CEMENT-SHAMBHUPRA",
      "Aditya Cement-shambhupra"
    ]
  },
  {
    "code": "ACSR",
    "name": "CHINAKURI NO.15",
    "city": "",
    "state": "",
    "lat": null,
    "lon": null,
    "isMajor": false,
    "aliases": [
      "ACSR",
      "CHINAKURI NO.15",
      "Chinakuri No.15"
    ]
  },
  {
    "code": "ACSY",
    "name": "AMBUJA CEMENT EASTERN LTD.",
    "city": "",
    "state": "",
    "lat": null,
    "lon": null,
    "isMajor": false,
    "aliases": [
      "ACSY",
      "AMBUJA CEMENT EASTERN LTD.",
      "Ambuja Cement Eastern Ltd."
    ]
  },
  {
    "code": "ACT",
    "name": "ASAKALATTUR HALT",
    "city": "",
    "state": "",
    "lat": null,
    "lon": null,
    "isMajor": false,
    "aliases": [
      "ACT",
      "ASAKALATTUR HALT",
      "Asakalattur Halt"
    ]
  },
  {
    "code": "ACTR",
    "name": "ANAANTA COLLIERY SDG",
    "city": "",
    "state": "",
    "lat": null,
    "lon": null,
    "isMajor": false,
    "aliases": [
      "ACTR",
      "ANAANTA COLLIERY SDG",
      "Anaanta Colliery Sdg"
    ]
  },
  {
    "code": "ACU",
    "name": "ACHUARA HALT",
    "city": "",
    "state": "",
    "lat": 25.45273,
    "lon": 85.661087,
    "isMajor": false,
    "aliases": [
      "ACU",
      "ACHUARA HALT",
      "Achuara Halt"
    ]
  },
  {
    "code": "ACV",
    "name": "ACHCHUNTANVAYAL",
    "city": "",
    "state": "",
    "lat": null,
    "lon": null,
    "isMajor": false,
    "aliases": [
      "ACV",
      "ACHCHUNTANVAYAL",
      "Achchuntanvayal"
    ]
  },
  {
    "code": "AD",
    "name": "ADONI",
    "city": "",
    "state": "",
    "lat": 15.617035,
    "lon": 77.27485,
    "isMajor": false,
    "aliases": [
      "AD",
      "ADONI",
      "Adoni"
    ]
  },
  {
    "code": "ADAW",
    "name": "ADRA WORKSHOP",
    "city": "",
    "state": "",
    "lat": null,
    "lon": null,
    "isMajor": false,
    "aliases": [
      "ADAW",
      "ADRA WORKSHOP",
      "Adra Workshop"
    ]
  },
  {
    "code": "ADB",
    "name": "ADILABAD",
    "city": "",
    "state": "Andhra Pradesh",
    "lat": 19.680104,
    "lon": 78.535285,
    "isMajor": false,
    "aliases": [
      "ADB",
      "ADILABAD",
      "Adilabad"
    ]
  },
  {
    "code": "ADBF",
    "name": "ADILABAD",
    "city": "",
    "state": "Andhra Pradesh",
    "lat": 19.680104,
    "lon": 78.535285,
    "isMajor": false,
    "aliases": [
      "ADBF",
      "ADILABAD",
      "Adilabad"
    ]
  },
  {
    "code": "ADD",
    "name": "ADAS ROAD",
    "city": "",
    "state": "",
    "lat": 22.486628078200003,
    "lon": 73.0346944543,
    "isMajor": false,
    "aliases": [
      "ADD",
      "ADAS ROAD",
      "Adas Road",
      "ADAS road"
    ]
  },
  {
    "code": "ADE",
    "name": "ADARI ROAD",
    "city": "",
    "state": "Gujarat",
    "lat": 20.986794999999997,
    "lon": 70.330818,
    "isMajor": false,
    "aliases": [
      "ADE",
      "ADARI ROAD",
      "Adari Road",
      "ADARI road"
    ]
  },
  {
    "code": "ADF",
    "name": "ADINA",
    "city": "",
    "state": "",
    "lat": 25.114396999999997,
    "lon": 88.12318,
    "isMajor": false,
    "aliases": [
      "ADF",
      "ADINA",
      "Adina"
    ]
  },
  {
    "code": "ADH",
    "name": "ANDHERI",
    "city": "",
    "state": "Maharashtra",
    "lat": 19.1174289,
    "lon": 72.84685300000001,
    "isMajor": false,
    "aliases": [
      "ADH",
      "ANDHERI",
      "Andheri"
    ]
  },
  {
    "code": "ADHL",
    "name": "ADIHALLI",
    "city": "",
    "state": "Karnataka",
    "lat": 13.2834201678,
    "lon": 76.3472840454,
    "isMajor": false,
    "aliases": [
      "ADHL",
      "ADIHALLI",
      "Adihalli"
    ]
  },
  {
    "code": "ADI",
    "name": "AHMEDABAD JN.",
    "city": "",
    "state": "",
    "lat": 23.025515,
    "lon": 72.601516,
    "isMajor": true,
    "aliases": [
      "ADI",
      "AHMEDABAD JN.",
      "Ahmedabad Jn.",
      "AHMEDABAD Junction.",
      "AHMEDABAD junction.",
      "AHMEDABAD jn."
    ]
  },
  {
    "code": "ADIJ",
    "name": "AHMEDABAD JN.",
    "city": "",
    "state": "",
    "lat": 23.025715,
    "lon": 72.60171600000001,
    "isMajor": false,
    "aliases": [
      "ADIJ",
      "AHMEDABAD JN.",
      "Ahmedabad Jn.",
      "AHMEDABAD Junction.",
      "AHMEDABAD junction.",
      "AHMEDABAD jn."
    ]
  },
  {
    "code": "ADIP",
    "name": "DUNCANS INDUSTRIES LTD., PANKI/KANPUR",
    "city": "",
    "state": "",
    "lat": null,
    "lon": null,
    "isMajor": false,
    "aliases": [
      "ADIP",
      "DUNCANS INDUSTRIES LTD., PANKI/KANPUR",
      "Duncans Industries Ltd., Panki/kanpur"
    ]
  },
  {
    "code": "ADL",
    "name": "ANDUL",
    "city": "",
    "state": "",
    "lat": 22.575169,
    "lon": 88.239643,
    "isMajor": false,
    "aliases": [
      "ADL",
      "ANDUL",
      "Andul"
    ]
  },
  {
    "code": "ADLP",
    "name": "ADALPUR HALT",
    "city": "",
    "state": "",
    "lat": null,
    "lon": null,
    "isMajor": false,
    "aliases": [
      "ADLP",
      "ADALPUR HALT",
      "Adalpur Halt"
    ]
  },
  {
    "code": "ADMB",
    "name": "ASST MILITARY SIDING ,BHAGAT KI KOTHI",
    "city": "",
    "state": "",
    "lat": null,
    "lon": null,
    "isMajor": false,
    "aliases": [
      "ADMB",
      "ASST MILITARY SIDING ,BHAGAT KI KOTHI",
      "Asst Military Siding ,bhagat Ki Kothi"
    ]
  },
  {
    "code": "ADMS",
    "name": "AMMUNITION DEPOT MILITARY SIDING, DAPPAR",
    "city": "",
    "state": "",
    "lat": null,
    "lon": null,
    "isMajor": false,
    "aliases": [
      "ADMS",
      "AMMUNITION DEPOT MILITARY SIDING, DAPPAR",
      "Ammunition Depot Military Siding, Dappar"
    ]
  },
  {
    "code": "ADP",
    "name": "AHMADPUR JN.",
    "city": "",
    "state": "",
    "lat": 23.8325090573,
    "lon": 87.6928410938,
    "isMajor": false,
    "aliases": [
      "ADP",
      "AHMADPUR JN.",
      "Ahmadpur Jn.",
      "AHMADPUR Junction.",
      "AHMADPUR junction.",
      "AHMADPUR jn."
    ]
  },
  {
    "code": "ADPT",
    "name": "ANDIPATTI",
    "city": "",
    "state": "",
    "lat": null,
    "lon": null,
    "isMajor": false,
    "aliases": [
      "ADPT",
      "ANDIPATTI",
      "Andipatti"
    ]
  },
  {
    "code": "ADQ",
    "name": "ADHIKARI",
    "city": "",
    "state": "",
    "lat": 26.57689211,
    "lon": 88.16988226000001,
    "isMajor": false,
    "aliases": [
      "ADQ",
      "ADHIKARI",
      "Adhikari"
    ]
  },
  {
    "code": "ADR",
    "name": "MANDI ADAMPUR",
    "city": "",
    "state": "Haryana",
    "lat": 29.283136000000002,
    "lon": 75.468851,
    "isMajor": false,
    "aliases": [
      "ADR",
      "MANDI ADAMPUR",
      "Mandi Adampur"
    ]
  },
  {
    "code": "ADRA",
    "name": "ADRA JN.",
    "city": "",
    "state": "West Bengal",
    "lat": 23.495992,
    "lon": 86.67466499999999,
    "isMajor": false,
    "aliases": [
      "ADRA",
      "ADRA JN.",
      "Adra Jn.",
      "ADRA Junction.",
      "ADRA junction.",
      "ADRA jn."
    ]
  },
  {
    "code": "ADRE",
    "name": "ADRA EAST CABIN",
    "city": "",
    "state": "",
    "lat": 23.492772000000002,
    "lon": 86.69287100000001,
    "isMajor": false,
    "aliases": [
      "ADRE",
      "ADRA EAST CABIN",
      "Adra East Cabin"
    ]
  },
  {
    "code": "ADSL",
    "name": "AMMUNITION DEPOT SIDING, LALRU",
    "city": "",
    "state": "",
    "lat": null,
    "lon": null,
    "isMajor": false,
    "aliases": [
      "ADSL",
      "AMMUNITION DEPOT SIDING, LALRU",
      "Ammunition Depot Siding, Lalru"
    ]
  },
  {
    "code": "ADSM",
    "name": "AMMUNITION DEPOT SIDING, PHUSMANDI BHANTINDA CANTT",
    "city": "",
    "state": "",
    "lat": null,
    "lon": null,
    "isMajor": false,
    "aliases": [
      "ADSM",
      "AMMUNITION DEPOT SIDING, PHUSMANDI BHANTINDA CANTT",
      "Ammunition Depot Siding, Phusmandi Bhantinda Cantt"
    ]
  },
  {
    "code": "ADST",
    "name": "ADI SAPTA GRAM",
    "city": "",
    "state": "",
    "lat": 22.95447,
    "lon": 88.378872,
    "isMajor": false,
    "aliases": [
      "ADST",
      "ADI SAPTA GRAM",
      "Adi Sapta Gram"
    ]
  },
  {
    "code": "ADT",
    "name": "ADUTHURAI",
    "city": "",
    "state": "Tamil Nadu",
    "lat": 11.009165,
    "lon": 79.478668,
    "isMajor": false,
    "aliases": [
      "ADT",
      "ADUTHURAI",
      "Aduthurai"
    ]
  },
  {
    "code": "ADTL",
    "name": "ADHARTAL",
    "city": "",
    "state": "Madhya Pradesh",
    "lat": 23.227389,
    "lon": 79.972274,
    "isMajor": false,
    "aliases": [
      "ADTL",
      "ADHARTAL",
      "Adhartal"
    ]
  },
  {
    "code": "ADTP",
    "name": "ADITYAPUR",
    "city": "",
    "state": "",
    "lat": 22.782212,
    "lon": 86.158954,
    "isMajor": false,
    "aliases": [
      "ADTP",
      "ADITYAPUR",
      "Adityapur"
    ]
  },
  {
    "code": "ADVI",
    "name": "ADAVALI",
    "city": "",
    "state": "Maharashtra",
    "lat": 16.921753,
    "lon": 73.592514,
    "isMajor": false,
    "aliases": [
      "ADVI",
      "ADAVALI",
      "Adavali"
    ]
  },
  {
    "code": "ADX",
    "name": "ADAPUR",
    "city": "",
    "state": "",
    "lat": 26.924721,
    "lon": 84.941759,
    "isMajor": false,
    "aliases": [
      "ADX",
      "ADAPUR",
      "Adapur"
    ]
  },
  {
    "code": "ADY",
    "name": "ADDERLEY",
    "city": "",
    "state": "",
    "lat": null,
    "lon": null,
    "isMajor": false,
    "aliases": [
      "ADY",
      "ADDERLEY",
      "Adderley"
    ]
  },
  {
    "code": "AE",
    "name": "AMRELI",
    "city": "",
    "state": "Gujarat",
    "lat": 21.607831,
    "lon": 71.228012,
    "isMajor": false,
    "aliases": [
      "AE",
      "AMRELI",
      "Amreli"
    ]
  },
  {
    "code": "AEB",
    "name": "AGRA EAST BANK",
    "city": "",
    "state": "",
    "lat": null,
    "lon": null,
    "isMajor": false,
    "aliases": [
      "AEB",
      "AGRA EAST BANK",
      "Agra East Bank"
    ]
  },
  {
    "code": "AEBK",
    "name": "AGRA EAST BANK",
    "city": "",
    "state": "",
    "lat": null,
    "lon": null,
    "isMajor": false,
    "aliases": [
      "AEBK",
      "AGRA EAST BANK",
      "Agra East Bank"
    ]
  },
  {
    "code": "AECS",
    "name": "AHMEDABAD ELEC. CO. LTD. SDG, SABARMATI JN.",
    "city": "",
    "state": "",
    "lat": null,
    "lon": null,
    "isMajor": false,
    "aliases": [
      "AECS",
      "AHMEDABAD ELEC. CO. LTD. SDG, SABARMATI JN.",
      "Ahmedabad Elec. Co. Ltd. Sdg, Sabarmati Jn.",
      "AHMEDABAD ELEC. CO. LTD. SDG, SABARMATI Junction.",
      "AHMEDABAD ELEC. CO. LTD. SDG, SABARMATI junction.",
      "AHMEDABAD ELEC. CO. LTD. SDG, SABARMATI jn."
    ]
  },
  {
    "code": "AED",
    "name": "AULENDA",
    "city": "",
    "state": "Uttar Pradesh",
    "lat": 27.029152,
    "lon": 77.612583,
    "isMajor": false,
    "aliases": [
      "AED",
      "AULENDA",
      "Aulenda"
    ]
  },
  {
    "code": "AEE",
    "name": "ALACHOR",
    "city": "",
    "state": "",
    "lat": null,
    "lon": null,
    "isMajor": false,
    "aliases": [
      "AEE",
      "ALACHOR",
      "Alachor"
    ]
  },
  {
    "code": "AEH",
    "name": "ANANTPAITH",
    "city": "",
    "state": "",
    "lat": 25.955389501299997,
    "lon": 78.2761320917,
    "isMajor": false,
    "aliases": [
      "AEH",
      "ANANTPAITH",
      "Anantpaith"
    ]
  },
  {
    "code": "AEJ",
    "name": "ARNEJ",
    "city": "",
    "state": "Gujarat",
    "lat": 22.582088000000002,
    "lon": 72.268322,
    "isMajor": false,
    "aliases": [
      "AEJ",
      "ARNEJ",
      "Arnej"
    ]
  },
  {
    "code": "AEK",
    "name": "ANEKAL ROAD",
    "city": "",
    "state": "Karnataka",
    "lat": 12.723885,
    "lon": 77.71072699999999,
    "isMajor": false,
    "aliases": [
      "AEK",
      "ANEKAL ROAD",
      "Anekal Road",
      "ANEKAL road"
    ]
  },
  {
    "code": "AEL",
    "name": "ATELI",
    "city": "",
    "state": "Haryana",
    "lat": 28.100118,
    "lon": 76.25310499999999,
    "isMajor": false,
    "aliases": [
      "AEL",
      "ATELI",
      "Ateli"
    ]
  },
  {
    "code": "AEMD",
    "name": "M/s.Adani Electricity Mumbai Ltd.-Dahanu Road",
    "city": "",
    "state": "",
    "lat": null,
    "lon": null,
    "isMajor": false,
    "aliases": [
      "AEMD",
      "M/s.Adani Electricity Mumbai Ltd.-Dahanu Road",
      "M/s.adani Electricity Mumbai Ltd.-dahanu Road",
      "M/s.Adani Electricity Mumbai Ltd.-Dahanu road"
    ]
  },
  {
    "code": "AEP",
    "name": "AMRELI PARA",
    "city": "",
    "state": "Gujarat",
    "lat": 21.6079811042,
    "lon": 71.2281676154,
    "isMajor": false,
    "aliases": [
      "AEP",
      "AMRELI PARA",
      "Amreli Para"
    ]
  },
  {
    "code": "AER",
    "name": "ASNERA",
    "city": "",
    "state": "",
    "lat": null,
    "lon": null,
    "isMajor": false,
    "aliases": [
      "AER",
      "ASNERA",
      "Asnera"
    ]
  },
  {
    "code": "AERO",
    "name": "AERO SIDING, DIGARU",
    "city": "",
    "state": "",
    "lat": null,
    "lon": null,
    "isMajor": false,
    "aliases": [
      "AERO",
      "AERO SIDING, DIGARU",
      "Aero Siding, Digaru"
    ]
  },
  {
    "code": "AEX",
    "name": "ADDERI HALT",
    "city": "",
    "state": "",
    "lat": 14.141045,
    "lon": 75.157978,
    "isMajor": false,
    "aliases": [
      "AEX",
      "ADDERI HALT",
      "Adderi Halt"
    ]
  },
  {
    "code": "AF",
    "name": "AGRA FORT",
    "city": "",
    "state": "",
    "lat": 27.183308,
    "lon": 78.0191,
    "isMajor": false,
    "aliases": [
      "AF",
      "AGRA FORT",
      "Agra Fort",
      "AGRA fort"
    ]
  },
  {
    "code": "AFCS",
    "name": "FOOD CORPORATION INDIA SDG, ANGAMALI",
    "city": "",
    "state": "",
    "lat": null,
    "lon": null,
    "isMajor": false,
    "aliases": [
      "AFCS",
      "FOOD CORPORATION INDIA SDG, ANGAMALI",
      "Food Corporation India Sdg, Angamali"
    ]
  },
  {
    "code": "AFK",
    "name": "ANGAMALI",
    "city": "",
    "state": "",
    "lat": 10.183676,
    "lon": 76.37786,
    "isMajor": false,
    "aliases": [
      "AFK",
      "ANGAMALI",
      "Angamali"
    ]
  },
  {
    "code": "AFR",
    "name": "ASAFPUR",
    "city": "",
    "state": "Uttar Pradesh",
    "lat": 28.405553,
    "lon": 78.905957,
    "isMajor": false,
    "aliases": [
      "AFR",
      "ASAFPUR",
      "Asafpur"
    ]
  },
  {
    "code": "AFSD",
    "name": "AIR FORCE SIDING, DIGARU",
    "city": "",
    "state": "",
    "lat": null,
    "lon": null,
    "isMajor": false,
    "aliases": [
      "AFSD",
      "AIR FORCE SIDING, DIGARU",
      "Air Force Siding, Digaru"
    ]
  },
  {
    "code": "AFSM",
    "name": "AF SIDING, MANAURI",
    "city": "",
    "state": "",
    "lat": null,
    "lon": null,
    "isMajor": false,
    "aliases": [
      "AFSM",
      "AF SIDING, MANAURI",
      "Af Siding, Manauri"
    ]
  },
  {
    "code": "AG",
    "name": "ARANGHATA",
    "city": "",
    "state": "West Bengal",
    "lat": 23.242037,
    "lon": 88.613551,
    "isMajor": false,
    "aliases": [
      "AG",
      "ARANGHATA",
      "Aranghata"
    ]
  },
  {
    "code": "AGA",
    "name": "AGRA CITY",
    "city": "",
    "state": "",
    "lat": 27.1945731,
    "lon": 78.0157752,
    "isMajor": false,
    "aliases": [
      "AGA",
      "AGRA CITY",
      "Agra City",
      "AGRA city"
    ]
  },
  {
    "code": "AGAE",
    "name": "AGRADWIP",
    "city": "",
    "state": "West Bengal",
    "lat": 23.58096,
    "lon": 88.22611699999999,
    "isMajor": false,
    "aliases": [
      "AGAE",
      "AGRADWIP",
      "Agradwip"
    ]
  },
  {
    "code": "AGAS",
    "name": "AGAS",
    "city": "",
    "state": "",
    "lat": null,
    "lon": null,
    "isMajor": false,
    "aliases": [
      "AGAS",
      "Agas"
    ]
  },
  {
    "code": "AGB",
    "name": "AMBAGAON",
    "city": "",
    "state": "Chhattisgarh",
    "lat": 19.062527,
    "lon": 82.239507,
    "isMajor": false,
    "aliases": [
      "AGB",
      "AMBAGAON",
      "Ambagaon"
    ]
  },
  {
    "code": "AGC",
    "name": "AGRA CANT JN.",
    "city": "",
    "state": "",
    "lat": 27.157992,
    "lon": 77.990153,
    "isMajor": true,
    "aliases": [
      "AGC",
      "AGRA CANT JN.",
      "Agra Cant Jn.",
      "AGRA CANT Junction.",
      "AGRA CANT junction.",
      "AGRA CANT jn."
    ]
  },
  {
    "code": "AGCI",
    "name": "ANGADI",
    "city": "",
    "state": "Gujarat",
    "lat": 22.806751,
    "lon": 73.282558,
    "isMajor": false,
    "aliases": [
      "AGCI",
      "ANGADI",
      "Angadi"
    ]
  },
  {
    "code": "AGD",
    "name": "AGASOD",
    "city": "",
    "state": "",
    "lat": 24.234023,
    "lon": 78.216912,
    "isMajor": false,
    "aliases": [
      "AGD",
      "AGASOD",
      "Agasod"
    ]
  },
  {
    "code": "AGDL",
    "name": "AGRAN DHUL GAON",
    "city": "",
    "state": "Maharashtra",
    "lat": 16.966118,
    "lon": 74.924993,
    "isMajor": false,
    "aliases": [
      "AGDL",
      "AGRAN DHUL GAON",
      "Agran Dhul Gaon"
    ]
  },
  {
    "code": "AGE",
    "name": "ANGAI",
    "city": "",
    "state": "Rajasthan",
    "lat": 26.606593,
    "lon": 77.46692,
    "isMajor": false,
    "aliases": [
      "AGE",
      "ANGAI",
      "Angai"
    ]
  },
  {
    "code": "AGFT",
    "name": "AGRA FORT",
    "city": "",
    "state": "",
    "lat": 27.183308,
    "lon": 78.0191,
    "isMajor": false,
    "aliases": [
      "AGFT",
      "AGRA FORT",
      "Agra Fort",
      "AGRA fort"
    ]
  },
  {
    "code": "AGI",
    "name": "ANGURI",
    "city": "",
    "state": "Assam",
    "lat": 26.812601,
    "lon": 94.524011,
    "isMajor": false,
    "aliases": [
      "AGI",
      "ANGURI",
      "Anguri"
    ]
  },
  {
    "code": "AGJ",
    "name": "AGRA JN. CABIN",
    "city": "",
    "state": "",
    "lat": null,
    "lon": null,
    "isMajor": false,
    "aliases": [
      "AGJ",
      "AGRA JN. CABIN",
      "Agra Jn. Cabin",
      "AGRA Junction. CABIN",
      "AGRA junction. CABIN",
      "AGRA jn. CABIN"
    ]
  },
  {
    "code": "AGL",
    "name": "AMARGOL",
    "city": "",
    "state": "Karnataka",
    "lat": 15.4117921224,
    "lon": 75.09820837459999,
    "isMajor": false,
    "aliases": [
      "AGL",
      "AMARGOL",
      "Amargol"
    ]
  },
  {
    "code": "AGM",
    "name": "AGARAM SIBBANDI",
    "city": "",
    "state": "",
    "lat": 12.414388,
    "lon": 79.11334699999999,
    "isMajor": false,
    "aliases": [
      "AGM",
      "AGARAM SIBBANDI",
      "Agaram Sibbandi"
    ]
  },
  {
    "code": "AGN",
    "name": "AMGAON",
    "city": "",
    "state": "",
    "lat": 21.361292855400002,
    "lon": 80.3746491022,
    "isMajor": false,
    "aliases": [
      "AGN",
      "AMGAON",
      "Amgaon"
    ]
  },
  {
    "code": "AGP",
    "name": "AGARPARA",
    "city": "",
    "state": "",
    "lat": 22.682505000000003,
    "lon": 88.384761,
    "isMajor": false,
    "aliases": [
      "AGP",
      "AGARPARA",
      "Agarpara"
    ]
  },
  {
    "code": "AGPS",
    "name": "AP GOVT PORT, KAKINADA PORT",
    "city": "",
    "state": "",
    "lat": null,
    "lon": null,
    "isMajor": false,
    "aliases": [
      "AGPS",
      "AP GOVT PORT, KAKINADA PORT",
      "Ap Govt Port, Kakinada Port"
    ]
  },
  {
    "code": "AGQ",
    "name": "ASIRGARH ROAD",
    "city": "",
    "state": "Madhya Pradesh",
    "lat": 21.378418,
    "lon": 76.268065,
    "isMajor": false,
    "aliases": [
      "AGQ",
      "ASIRGARH ROAD",
      "Asirgarh Road",
      "ASIRGARH road"
    ]
  },
  {
    "code": "AGR",
    "name": "AMAR GARH",
    "city": "",
    "state": "",
    "lat": 23.080689,
    "lon": 74.747038,
    "isMajor": false,
    "aliases": [
      "AGR",
      "AMAR GARH",
      "Amar Garh"
    ]
  },
  {
    "code": "AGS",
    "name": "ALWAR GOODS SHED",
    "city": "",
    "state": "",
    "lat": null,
    "lon": null,
    "isMajor": false,
    "aliases": [
      "AGS",
      "ALWAR GOODS SHED",
      "Alwar Goods Shed"
    ]
  },
  {
    "code": "AGT",
    "name": "AGTHORI",
    "city": "",
    "state": "",
    "lat": 26.20089324,
    "lon": 91.686006,
    "isMajor": false,
    "aliases": [
      "AGT",
      "AGTHORI",
      "Agthori"
    ]
  },
  {
    "code": "AGTL",
    "name": "AGARTALA",
    "city": "",
    "state": "Tripura",
    "lat": 23.792417,
    "lon": 91.278481,
    "isMajor": false,
    "aliases": [
      "AGTL",
      "AGARTALA",
      "Agartala"
    ]
  },
  {
    "code": "AGTR",
    "name": "AGTHORI",
    "city": "",
    "state": "",
    "lat": 26.008145546599998,
    "lon": 84.8437572205,
    "isMajor": false,
    "aliases": [
      "AGTR",
      "AGTHORI",
      "Agthori"
    ]
  },
  {
    "code": "AGV",
    "name": "ANGUA",
    "city": "",
    "state": "",
    "lat": 21.892581999999997,
    "lon": 87.26992299999999,
    "isMajor": false,
    "aliases": [
      "AGV",
      "ANGUA",
      "Angua"
    ]
  },
  {
    "code": "AGW",
    "name": "AHUT GRAM",
    "city": "",
    "state": "",
    "lat": null,
    "lon": null,
    "isMajor": false,
    "aliases": [
      "AGW",
      "AHUT GRAM",
      "Ahut Gram"
    ]
  },
  {
    "code": "AGX",
    "name": "AGASTIYAMPALLI",
    "city": "",
    "state": "",
    "lat": null,
    "lon": null,
    "isMajor": false,
    "aliases": [
      "AGX",
      "AGASTIYAMPALLI",
      "Agastiyampalli"
    ]
  },
  {
    "code": "AGY",
    "name": "AGORI KHAS",
    "city": "",
    "state": "Uttar Pradesh",
    "lat": 24.59896,
    "lon": 83.056105,
    "isMajor": false,
    "aliases": [
      "AGY",
      "AGORI KHAS",
      "Agori Khas"
    ]
  },
  {
    "code": "AGZ",
    "name": "AMAGURA",
    "city": "",
    "state": "Chhattisgarh",
    "lat": 19.068103,
    "lon": 82.147342,
    "isMajor": false,
    "aliases": [
      "AGZ",
      "AMAGURA",
      "Amagura"
    ]
  },
  {
    "code": "AH",
    "name": "ACHHNERA JN.",
    "city": "",
    "state": "",
    "lat": 27.1817602284,
    "lon": 77.7578389026,
    "isMajor": false,
    "aliases": [
      "AH",
      "ACHHNERA JN.",
      "Achhnera Jn.",
      "ACHHNERA Junction.",
      "ACHHNERA junction.",
      "ACHHNERA jn."
    ]
  },
  {
    "code": "AHA",
    "name": "ABHAIPUR",
    "city": "",
    "state": "",
    "lat": 25.2159864584,
    "lon": 86.32307245909999,
    "isMajor": false,
    "aliases": [
      "AHA",
      "ABHAIPUR",
      "Abhaipur"
    ]
  },
  {
    "code": "AHD",
    "name": "AHERWADI HALT",
    "city": "",
    "state": "Karnataka",
    "lat": 17.504915,
    "lon": 75.99559,
    "isMajor": false,
    "aliases": [
      "AHD",
      "AHERWADI HALT",
      "Aherwadi Halt"
    ]
  },
  {
    "code": "AHH",
    "name": "AHMADGARH",
    "city": "",
    "state": "Punjab",
    "lat": 30.683642000000003,
    "lon": 75.829518,
    "isMajor": false,
    "aliases": [
      "AHH",
      "AHMADGARH",
      "Ahmadgarh"
    ]
  },
  {
    "code": "AHI",
    "name": "ASHTI",
    "city": "",
    "state": "Maharashtra",
    "lat": 17.8447367757,
    "lon": 75.4030697949,
    "isMajor": false,
    "aliases": [
      "AHI",
      "ASHTI",
      "Ashti"
    ]
  },
  {
    "code": "AHJU",
    "name": "AHJU",
    "city": "",
    "state": "Himachal Pradesh",
    "lat": 32.02843,
    "lon": 76.690156,
    "isMajor": false,
    "aliases": [
      "AHJU",
      "Ahju"
    ]
  },
  {
    "code": "AHL",
    "name": "AJHARAIL",
    "city": "",
    "state": "",
    "lat": 25.781637999999997,
    "lon": 87.848322,
    "isMajor": false,
    "aliases": [
      "AHL",
      "AJHARAIL",
      "Ajharail"
    ]
  },
  {
    "code": "AHLF",
    "name": "AJHARAIL",
    "city": "",
    "state": "",
    "lat": 25.781637999999997,
    "lon": 87.848322,
    "isMajor": false,
    "aliases": [
      "AHLF",
      "AJHARAIL",
      "Ajharail"
    ]
  },
  {
    "code": "AHLR",
    "name": "AHALYA PUR",
    "city": "",
    "state": "",
    "lat": 26.468381,
    "lon": 83.824844,
    "isMajor": false,
    "aliases": [
      "AHLR",
      "AHALYA PUR",
      "Ahalya Pur"
    ]
  },
  {
    "code": "AHM",
    "name": "AHIMANPUR",
    "city": "",
    "state": "Uttar Pradesh",
    "lat": 25.252404,
    "lon": 82.511544,
    "isMajor": false,
    "aliases": [
      "AHM",
      "AHIMANPUR",
      "Ahimanpur"
    ]
  },
  {
    "code": "AHN",
    "name": "AHIRAN",
    "city": "",
    "state": "West Bengal",
    "lat": 24.517687000000002,
    "lon": 88.04112500000001,
    "isMajor": false,
    "aliases": [
      "AHN",
      "AHIRAN",
      "Ahiran"
    ]
  },
  {
    "code": "AHO",
    "name": "ADARSHNAGAR",
    "city": "",
    "state": "Rajasthan",
    "lat": 26.411579930800002,
    "lon": 74.653432493,
    "isMajor": false,
    "aliases": [
      "AHO",
      "ADARSHNAGAR",
      "Adarshnagar"
    ]
  },
  {
    "code": "AHQ",
    "name": "AHERA HALT",
    "city": "",
    "state": "Uttar Pradesh",
    "lat": 28.926420999999998,
    "lon": 77.27862400000001,
    "isMajor": false,
    "aliases": [
      "AHQ",
      "AHERA HALT",
      "Ahera Halt"
    ]
  },
  {
    "code": "AHT",
    "name": "AMGHATA",
    "city": "",
    "state": "",
    "lat": null,
    "lon": null,
    "isMajor": false,
    "aliases": [
      "AHT",
      "AMGHATA",
      "Amghata"
    ]
  },
  {
    "code": "AHU",
    "name": "AHIRAULI HALT",
    "city": "",
    "state": "Uttar Pradesh",
    "lat": 27.30686,
    "lon": 83.03422499999999,
    "isMajor": false,
    "aliases": [
      "AHU",
      "AHIRAULI HALT",
      "Ahirauli Halt"
    ]
  },
  {
    "code": "AHZ",
    "name": "ADHINPUR",
    "city": "",
    "state": "",
    "lat": 26.418478,
    "lon": 81.726848,
    "isMajor": false,
    "aliases": [
      "AHZ",
      "ADHINPUR",
      "Adhinpur"
    ]
  },
  {
    "code": "AI",
    "name": "ADIPUR",
    "city": "",
    "state": "Gujarat",
    "lat": 23.077052700000003,
    "lon": 70.0786586,
    "isMajor": false,
    "aliases": [
      "AI",
      "ADIPUR",
      "Adipur"
    ]
  },
  {
    "code": "AIA",
    "name": "AJARKA",
    "city": "",
    "state": "Rajasthan",
    "lat": 27.959391,
    "lon": 76.56420899999999,
    "isMajor": false,
    "aliases": [
      "AIA",
      "AJARKA",
      "Ajarka"
    ]
  },
  {
    "code": "AICD",
    "name": "I.C.D. SIDING, AMRITSAR",
    "city": "",
    "state": "",
    "lat": null,
    "lon": null,
    "isMajor": false,
    "aliases": [
      "AICD",
      "I.C.D. SIDING, AMRITSAR",
      "I.c.d. Siding, Amritsar"
    ]
  },
  {
    "code": "AIG",
    "name": "AIGAWAN",
    "city": "",
    "state": "",
    "lat": 27.700598000000003,
    "lon": 79.963236,
    "isMajor": false,
    "aliases": [
      "AIG",
      "AIGAWAN",
      "Aigawan"
    ]
  },
  {
    "code": "AIH",
    "name": "ALAWALPUR IDRISPUR",
    "city": "",
    "state": "Uttar Pradesh",
    "lat": 29.0477960432,
    "lon": 77.27163889890001,
    "isMajor": false,
    "aliases": [
      "AIH",
      "ALAWALPUR IDRISPUR",
      "Alawalpur Idrispur"
    ]
  },
  {
    "code": "AII",
    "name": "AJMER JN.",
    "city": "",
    "state": "Rajasthan",
    "lat": 26.456612,
    "lon": 74.63746400000001,
    "isMajor": false,
    "aliases": [
      "AII",
      "AJMER JN.",
      "Ajmer Jn.",
      "AJMER Junction.",
      "AJMER junction.",
      "AJMER jn."
    ]
  },
  {
    "code": "AIIN",
    "name": "AJMER JN.",
    "city": "",
    "state": "Rajasthan",
    "lat": 26.456612,
    "lon": 74.63746400000001,
    "isMajor": false,
    "aliases": [
      "AIIN",
      "AJMER JN.",
      "Ajmer Jn.",
      "AJMER Junction.",
      "AJMER junction.",
      "AJMER jn."
    ]
  },
  {
    "code": "AIIW",
    "name": "AJMER WORKSHOPS",
    "city": "",
    "state": "",
    "lat": null,
    "lon": null,
    "isMajor": false,
    "aliases": [
      "AIIW",
      "AJMER WORKSHOPS",
      "Ajmer Workshops"
    ]
  },
  {
    "code": "AIK",
    "name": "ARNI KHANA",
    "city": "",
    "state": "",
    "lat": null,
    "lon": null,
    "isMajor": false,
    "aliases": [
      "AIK",
      "ARNI KHANA",
      "Arni Khana"
    ]
  },
  {
    "code": "AILM",
    "name": "AILAM",
    "city": "",
    "state": "Uttar Pradesh",
    "lat": 29.2719947091,
    "lon": 77.2915349414,
    "isMajor": false,
    "aliases": [
      "AILM",
      "AILAM",
      "Ailam"
    ]
  },
  {
    "code": "AIP",
    "name": "ATTIPPATTU",
    "city": "",
    "state": "",
    "lat": 13.2611631708,
    "lon": 80.2889459058,
    "isMajor": false,
    "aliases": [
      "AIP",
      "ATTIPPATTU",
      "Attippattu"
    ]
  },
  {
    "code": "AIPO",
    "name": "CHETTINAD INTERNATIONAL COAL TERMINAL PRIVATE SIDING",
    "city": "",
    "state": "",
    "lat": null,
    "lon": null,
    "isMajor": false,
    "aliases": [
      "AIPO",
      "CHETTINAD INTERNATIONAL COAL TERMINAL PRIVATE SIDING",
      "Chettinad International Coal Terminal Private Siding",
      "CHETTINAD INTERNATIONAL COAL Terminus PRIVATE SIDING",
      "CHETTINAD INTERNATIONAL COAL terminus PRIVATE SIDING"
    ]
  },
  {
    "code": "AIPP",
    "name": "ATTIPATTU PUDU NAGAR.H",
    "city": "",
    "state": "",
    "lat": 13.249326,
    "lon": 80.299606,
    "isMajor": false,
    "aliases": [
      "AIPP",
      "ATTIPATTU PUDU NAGAR.H",
      "Attipattu Pudu Nagar.h"
    ]
  },
  {
    "code": "AIPS",
    "name": "THERMAL POWER PLANT SDG, ATTIPPATTU",
    "city": "",
    "state": "",
    "lat": null,
    "lon": null,
    "isMajor": false,
    "aliases": [
      "AIPS",
      "THERMAL POWER PLANT SDG, ATTIPPATTU",
      "Thermal Power Plant Sdg, Attippattu"
    ]
  },
  {
    "code": "AIR",
    "name": "ALINDRA ROAD",
    "city": "",
    "state": "",
    "lat": 22.440575,
    "lon": 73.239854,
    "isMajor": false,
    "aliases": [
      "AIR",
      "ALINDRA ROAD",
      "Alindra Road",
      "ALINDRA road"
    ]
  },
  {
    "code": "AIRL",
    "name": "AIROLI",
    "city": "",
    "state": "",
    "lat": null,
    "lon": null,
    "isMajor": false,
    "aliases": [
      "AIRL",
      "AIROLI",
      "Airoli"
    ]
  },
  {
    "code": "AIS",
    "name": "AJMER STOR SIDING",
    "city": "",
    "state": "",
    "lat": null,
    "lon": null,
    "isMajor": false,
    "aliases": [
      "AIS",
      "AJMER STOR SIDING",
      "Ajmer Stor Siding"
    ]
  },
  {
    "code": "AISS",
    "name": "STORE SIDING, AJMER JN.",
    "city": "",
    "state": "",
    "lat": null,
    "lon": null,
    "isMajor": false,
    "aliases": [
      "AISS",
      "STORE SIDING, AJMER JN.",
      "Store Siding, Ajmer Jn.",
      "STORE SIDING, AJMER Junction.",
      "STORE SIDING, AJMER junction.",
      "STORE SIDING, AJMER jn."
    ]
  },
  {
    "code": "AIT",
    "name": "AIT JN.",
    "city": "",
    "state": "",
    "lat": 25.903719000000002,
    "lon": 79.230436,
    "isMajor": false,
    "aliases": [
      "AIT",
      "AIT JN.",
      "Ait Jn.",
      "AIT Junction.",
      "AIT junction.",
      "AIT jn."
    ]
  },
  {
    "code": "AJ",
    "name": "AJGAIN",
    "city": "",
    "state": "",
    "lat": 26.61721,
    "lon": 80.62098800000001,
    "isMajor": false,
    "aliases": [
      "AJ",
      "AJGAIN",
      "Ajgain"
    ]
  },
  {
    "code": "AJBB",
    "name": "JARDIAN BALIHERY -2",
    "city": "",
    "state": "",
    "lat": null,
    "lon": null,
    "isMajor": false,
    "aliases": [
      "AJBB",
      "JARDIAN BALIHERY -2",
      "Jardian Balihery -2"
    ]
  },
  {
    "code": "AJE",
    "name": "ANJAR",
    "city": "",
    "state": "Gujarat",
    "lat": 23.1194723,
    "lon": 70.0366109,
    "isMajor": false,
    "aliases": [
      "AJE",
      "ANJAR",
      "Anjar"
    ]
  },
  {
    "code": "AJH",
    "name": "AJHAI",
    "city": "",
    "state": "",
    "lat": 27.63615,
    "lon": 77.55842299999999,
    "isMajor": false,
    "aliases": [
      "AJH",
      "AJHAI",
      "Ajhai"
    ]
  },
  {
    "code": "AJI",
    "name": "ANJHI SHAHABAD",
    "city": "",
    "state": "",
    "lat": 27.643994,
    "lon": 79.973314,
    "isMajor": false,
    "aliases": [
      "AJI",
      "ANJHI SHAHABAD",
      "Anjhi Shahabad"
    ]
  },
  {
    "code": "AJIT",
    "name": "AJIT",
    "city": "",
    "state": "Rajasthan",
    "lat": 25.860076969999998,
    "lon": 72.67795462,
    "isMajor": false,
    "aliases": [
      "AJIT",
      "Ajit"
    ]
  },
  {
    "code": "AJJ",
    "name": "ARAKKONAM JN.",
    "city": "",
    "state": "",
    "lat": 13.081512,
    "lon": 79.667991,
    "isMajor": false,
    "aliases": [
      "AJJ",
      "ARAKKONAM JN.",
      "Arakkonam Jn.",
      "ARAKKONAM Junction.",
      "ARAKKONAM junction.",
      "ARAKKONAM jn."
    ]
  },
  {
    "code": "AJJB",
    "name": "RAMCO INDUSTRY LTD SIDING, ARAKKONAM",
    "city": "",
    "state": "",
    "lat": null,
    "lon": null,
    "isMajor": false,
    "aliases": [
      "AJJB",
      "RAMCO INDUSTRY LTD SIDING, ARAKKONAM",
      "Ramco Industry Ltd Siding, Arakkonam"
    ]
  },
  {
    "code": "AJJM",
    "name": "RAMCO INDUSTRY LTD SIDING, ARAKKONAM",
    "city": "",
    "state": "",
    "lat": null,
    "lon": null,
    "isMajor": false,
    "aliases": [
      "AJJM",
      "RAMCO INDUSTRY LTD SIDING, ARAKKONAM",
      "Ramco Industry Ltd Siding, Arakkonam"
    ]
  },
  {
    "code": "AJJN",
    "name": "AROKONAM JN. NORTH BLOCK CABIN",
    "city": "",
    "state": "",
    "lat": 13.086445000000001,
    "lon": 79.64842900000001,
    "isMajor": false,
    "aliases": [
      "AJJN",
      "AROKONAM JN. NORTH BLOCK CABIN",
      "Arokonam Jn. North Block Cabin",
      "AROKONAM Junction. NORTH BLOCK CABIN",
      "AROKONAM junction. NORTH BLOCK CABIN",
      "AROKONAM jn. NORTH BLOCK CABIN"
    ]
  },
  {
    "code": "AJJS",
    "name": "TAMIL NADU STEEL LTD. SDG, ARAKKONAM",
    "city": "",
    "state": "",
    "lat": null,
    "lon": null,
    "isMajor": false,
    "aliases": [
      "AJJS",
      "TAMIL NADU STEEL LTD. SDG, ARAKKONAM",
      "Tamil Nadu Steel Ltd. Sdg, Arakkonam"
    ]
  },
  {
    "code": "AJK",
    "name": "AJAKOLLU",
    "city": "",
    "state": "",
    "lat": 16.3467833327,
    "lon": 77.8736361627,
    "isMajor": false,
    "aliases": [
      "AJK",
      "AJAKOLLU",
      "Ajakollu"
    ]
  },
  {
    "code": "AJKI",
    "name": "AJIT KHERI",
    "city": "",
    "state": "Madhya Pradesh",
    "lat": 23.040004,
    "lon": 76.045323,
    "isMajor": false,
    "aliases": [
      "AJKI",
      "AJIT KHERI",
      "Ajit Kheri"
    ]
  },
  {
    "code": "AJL",
    "name": "AJITWAL",
    "city": "",
    "state": "Punjab",
    "lat": 30.807611,
    "lon": 75.33981800000001,
    "isMajor": false,
    "aliases": [
      "AJL",
      "AJITWAL",
      "Ajitwal"
    ]
  },
  {
    "code": "AJLE",
    "name": "AZIMGANJ JN. CABIN",
    "city": "",
    "state": "",
    "lat": 24.23827,
    "lon": 88.257363,
    "isMajor": false,
    "aliases": [
      "AJLE",
      "AZIMGANJ JN. CABIN",
      "Azimganj Jn. Cabin",
      "AZIMGANJ Junction. CABIN",
      "AZIMGANJ junction. CABIN",
      "AZIMGANJ jn. CABIN"
    ]
  },
  {
    "code": "AJM",
    "name": "ADRAJ MOTI",
    "city": "",
    "state": "Gujarat",
    "lat": 23.258801000000002,
    "lon": 72.565608,
    "isMajor": false,
    "aliases": [
      "AJM",
      "ADRAJ MOTI",
      "Adraj Moti"
    ]
  },
  {
    "code": "AJMK",
    "name": "BOKARO JHARIA MAIN LINE, KHANUDIH",
    "city": "",
    "state": "",
    "lat": null,
    "lon": null,
    "isMajor": false,
    "aliases": [
      "AJMK",
      "BOKARO JHARIA MAIN LINE, KHANUDIH",
      "Bokaro Jharia Main Line, Khanudih"
    ]
  },
  {
    "code": "AJN",
    "name": "AJNOD",
    "city": "",
    "state": "Madhya Pradesh",
    "lat": 22.931326000000002,
    "lon": 75.738947,
    "isMajor": false,
    "aliases": [
      "AJN",
      "AJNOD",
      "Ajnod"
    ]
  },
  {
    "code": "AJNI",
    "name": "AJNI",
    "city": "",
    "state": "",
    "lat": 21.1268588122,
    "lon": 79.0825197485,
    "isMajor": false,
    "aliases": [
      "AJNI",
      "Ajni"
    ]
  },
  {
    "code": "AJP",
    "name": "AJAMPUR",
    "city": "",
    "state": "Karnataka",
    "lat": 13.7283327,
    "lon": 76.0097415,
    "isMajor": false,
    "aliases": [
      "AJP",
      "AJAMPUR",
      "Ajampur"
    ]
  },
  {
    "code": "AJR",
    "name": "AJAIBPUR",
    "city": "",
    "state": "",
    "lat": 28.4728347205,
    "lon": 77.59373730349999,
    "isMajor": false,
    "aliases": [
      "AJR",
      "AJAIBPUR",
      "Ajaibpur"
    ]
  },
  {
    "code": "AJRE",
    "name": "AUJARI",
    "city": "",
    "state": "Assam",
    "lat": 26.1446457224,
    "lon": 92.266800144,
    "isMajor": false,
    "aliases": [
      "AJRE",
      "AUJARI",
      "Aujari"
    ]
  },
  {
    "code": "AJTM",
    "name": "AJITGILL MATTA HALT",
    "city": "",
    "state": "Punjab",
    "lat": 30.483469,
    "lon": 74.863795,
    "isMajor": false,
    "aliases": [
      "AJTM",
      "AJITGILL MATTA HALT",
      "Ajitgill Matta Halt"
    ]
  },
  {
    "code": "AJU",
    "name": "ARJUNI",
    "city": "",
    "state": "Maharashtra",
    "lat": 20.8165878335,
    "lon": 80.022581618,
    "isMajor": false,
    "aliases": [
      "AJU",
      "ARJUNI",
      "Arjuni"
    ]
  },
  {
    "code": "AJUG",
    "name": "ABJUGANJ",
    "city": "",
    "state": "",
    "lat": 25.242369,
    "lon": 86.775451,
    "isMajor": false,
    "aliases": [
      "AJUG",
      "ABJUGANJ",
      "Abjuganj"
    ]
  },
  {
    "code": "AJWA",
    "name": "AJWA",
    "city": "",
    "state": "",
    "lat": null,
    "lon": null,
    "isMajor": false,
    "aliases": [
      "AJWA",
      "Ajwa"
    ]
  },
  {
    "code": "AJWS",
    "name": "JORAPUKUR WASHERY, SUDAMDIH",
    "city": "",
    "state": "",
    "lat": null,
    "lon": null,
    "isMajor": false,
    "aliases": [
      "AJWS",
      "JORAPUKUR WASHERY, SUDAMDIH",
      "Jorapukur Washery, Sudamdih"
    ]
  },
  {
    "code": "AK",
    "name": "AKOLA JN.",
    "city": "",
    "state": "",
    "lat": 20.723084,
    "lon": 77.005497,
    "isMajor": false,
    "aliases": [
      "AK",
      "AKOLA JN.",
      "Akola Jn.",
      "AKOLA Junction.",
      "AKOLA junction.",
      "AKOLA jn."
    ]
  },
  {
    "code": "AKAH",
    "name": "ARTALAKATTA",
    "city": "",
    "state": "",
    "lat": null,
    "lon": null,
    "isMajor": false,
    "aliases": [
      "AKAH",
      "ARTALAKATTA",
      "Artalakatta"
    ]
  },
  {
    "code": "AKAT",
    "name": "AKKAMPET HALT",
    "city": "",
    "state": "",
    "lat": 13.6491060718,
    "lon": 80.0188634064,
    "isMajor": false,
    "aliases": [
      "AKAT",
      "AKKAMPET HALT",
      "Akkampet Halt"
    ]
  },
  {
    "code": "AKD",
    "name": "AKODIA",
    "city": "",
    "state": "",
    "lat": 23.378255,
    "lon": 76.599245,
    "isMajor": false,
    "aliases": [
      "AKD",
      "AKODIA",
      "Akodia"
    ]
  },
  {
    "code": "AKE",
    "name": "AKANAPET",
    "city": "",
    "state": "Andhra Pradesh",
    "lat": 18.110863,
    "lon": 78.39630899999999,
    "isMajor": false,
    "aliases": [
      "AKE",
      "AKANAPET",
      "Akanapet"
    ]
  },
  {
    "code": "AKFS",
    "name": "TRANSFORMERS AND ELECTRICALS KERALA LTD SDG, ANGAMALI",
    "city": "",
    "state": "",
    "lat": null,
    "lon": null,
    "isMajor": false,
    "aliases": [
      "AKFS",
      "TRANSFORMERS AND ELECTRICALS KERALA LTD SDG, ANGAMALI",
      "Transformers And Electricals Kerala Ltd Sdg, Angamali"
    ]
  },
  {
    "code": "AKI",
    "name": "ADARKI",
    "city": "",
    "state": "Maharashtra",
    "lat": 17.918333,
    "lon": 74.189651,
    "isMajor": false,
    "aliases": [
      "AKI",
      "ADARKI",
      "Adarki"
    ]
  },
  {
    "code": "AKIP",
    "name": "AKAIPUR HALT",
    "city": "",
    "state": "",
    "lat": null,
    "lon": null,
    "isMajor": false,
    "aliases": [
      "AKIP",
      "AKAIPUR HALT",
      "Akaipur Halt"
    ]
  },
  {
    "code": "AKIS",
    "name": "KSEB IDIKKI HYDRO ELECTRIC SCHEME SDG, ANGAMALI",
    "city": "",
    "state": "",
    "lat": null,
    "lon": null,
    "isMajor": false,
    "aliases": [
      "AKIS",
      "KSEB IDIKKI HYDRO ELECTRIC SCHEME SDG, ANGAMALI",
      "Kseb Idikki Hydro Electric Scheme Sdg, Angamali"
    ]
  },
  {
    "code": "AKJ",
    "name": "AKBAR GANJ",
    "city": "",
    "state": "",
    "lat": 26.531456000000002,
    "lon": 81.501628,
    "isMajor": false,
    "aliases": [
      "AKJ",
      "AKBAR GANJ",
      "Akbar Ganj"
    ]
  },
  {
    "code": "AKK",
    "name": "AKKIHEBBALU",
    "city": "",
    "state": "Karnataka",
    "lat": 12.62489,
    "lon": 76.37759799999999,
    "isMajor": false,
    "aliases": [
      "AKK",
      "AKKIHEBBALU",
      "Akkihebbalu"
    ]
  },
  {
    "code": "AKKK",
    "name": "KUSTORE-7A SIDING BHAGA",
    "city": "",
    "state": "",
    "lat": null,
    "lon": null,
    "isMajor": false,
    "aliases": [
      "AKKK",
      "KUSTORE-7A SIDING BHAGA",
      "Kustore-7a Siding Bhaga"
    ]
  },
  {
    "code": "AKL",
    "name": "ANAKHOL",
    "city": "",
    "state": "",
    "lat": null,
    "lon": null,
    "isMajor": false,
    "aliases": [
      "AKL",
      "ANAKHOL",
      "Anakhol"
    ]
  },
  {
    "code": "AKLA",
    "name": "AKOLA JN.",
    "city": "",
    "state": "",
    "lat": 20.723084,
    "lon": 77.005497,
    "isMajor": false,
    "aliases": [
      "AKLA",
      "AKOLA JN.",
      "Akola Jn.",
      "AKOLA Junction.",
      "AKOLA junction.",
      "AKOLA jn."
    ]
  },
  {
    "code": "AKLJ",
    "name": "AKLUJ O.A.",
    "city": "",
    "state": "",
    "lat": null,
    "lon": null,
    "isMajor": false,
    "aliases": [
      "AKLJ",
      "AKLUJ O.A.",
      "Akluj O.a."
    ]
  },
  {
    "code": "AKM",
    "name": "ARAMBAKAM",
    "city": "",
    "state": "",
    "lat": 13.532686,
    "lon": 80.074371,
    "isMajor": false,
    "aliases": [
      "AKM",
      "ARAMBAKAM",
      "Arambakam"
    ]
  },
  {
    "code": "AKN",
    "name": "AKBAR NAGAR",
    "city": "",
    "state": "",
    "lat": 25.234880766899998,
    "lon": 86.8345333624,
    "isMajor": false,
    "aliases": [
      "AKN",
      "AKBAR NAGAR",
      "Akbar Nagar"
    ]
  },
  {
    "code": "AKNB",
    "name": "KANKANEE NO.2, BHOJUDIH",
    "city": "",
    "state": "",
    "lat": null,
    "lon": null,
    "isMajor": false,
    "aliases": [
      "AKNB",
      "KANKANEE NO.2, BHOJUDIH",
      "Kankanee No.2, Bhojudih"
    ]
  },
  {
    "code": "AKNR",
    "name": "ADHYATMIK NAGAR HALT",
    "city": "",
    "state": "",
    "lat": 28.679874,
    "lon": 77.49972700000001,
    "isMajor": false,
    "aliases": [
      "AKNR",
      "ADHYATMIK NAGAR HALT",
      "Adhyatmik Nagar Halt"
    ]
  },
  {
    "code": "AKOR",
    "name": "AKALKOT ROAD",
    "city": "",
    "state": "",
    "lat": 17.450243,
    "lon": 76.13768900000001,
    "isMajor": false,
    "aliases": [
      "AKOR",
      "AKALKOT ROAD",
      "Akalkot Road",
      "AKALKOT road"
    ]
  },
  {
    "code": "AKOT",
    "name": "AKOT",
    "city": "",
    "state": "Maharashtra",
    "lat": 21.095661,
    "lon": 77.047217,
    "isMajor": false,
    "aliases": [
      "AKOT",
      "Akot"
    ]
  },
  {
    "code": "AKP",
    "name": "ANAKAPALLE",
    "city": "",
    "state": "",
    "lat": 17.695503,
    "lon": 83.00885099999999,
    "isMajor": false,
    "aliases": [
      "AKP",
      "ANAKAPALLE",
      "Anakapalle"
    ]
  },
  {
    "code": "AKPK",
    "name": "M/S ADANI KRISHNAPATNAM PORT LTD. SIDING, KRISHNAPATNAM",
    "city": "",
    "state": "",
    "lat": null,
    "lon": null,
    "isMajor": false,
    "aliases": [
      "AKPK",
      "M/S ADANI KRISHNAPATNAM PORT LTD. SIDING, KRISHNAPATNAM",
      "M/s Adani Krishnapatnam Port Ltd. Siding, Krishnapatnam"
    ]
  },
  {
    "code": "AKR",
    "name": "AKOLNER",
    "city": "",
    "state": "",
    "lat": 18.985409,
    "lon": 74.66906999999999,
    "isMajor": false,
    "aliases": [
      "AKR",
      "AKOLNER",
      "Akolner"
    ]
  },
  {
    "code": "AKRA",
    "name": "AKRA",
    "city": "",
    "state": "West Bengal",
    "lat": 22.514668,
    "lon": 88.249021,
    "isMajor": false,
    "aliases": [
      "AKRA",
      "Akra"
    ]
  },
  {
    "code": "AKRD",
    "name": "AKURDI",
    "city": "",
    "state": "",
    "lat": 18.64812,
    "lon": 73.76424399999999,
    "isMajor": false,
    "aliases": [
      "AKRD",
      "AKURDI",
      "Akurdi"
    ]
  },
  {
    "code": "AKS",
    "name": "ANKUSPUR",
    "city": "",
    "state": "Uttar Pradesh",
    "lat": 25.5713190547,
    "lon": 83.4940121521,
    "isMajor": false,
    "aliases": [
      "AKS",
      "ANKUSPUR",
      "Ankuspur"
    ]
  },
  {
    "code": "AKT",
    "name": "AKALTARA",
    "city": "",
    "state": "",
    "lat": 22.029121,
    "lon": 82.422049,
    "isMajor": false,
    "aliases": [
      "AKT",
      "AKALTARA",
      "Akaltara"
    ]
  },
  {
    "code": "AKTS",
    "name": "AMAR KANTAK THERMAL POWER STN., AMLAI",
    "city": "",
    "state": "",
    "lat": null,
    "lon": null,
    "isMajor": false,
    "aliases": [
      "AKTS",
      "AMAR KANTAK THERMAL POWER STN., AMLAI",
      "Amar Kantak Thermal Power Stn., Amlai"
    ]
  },
  {
    "code": "AKU",
    "name": "ANGALAKUDURU HALT",
    "city": "",
    "state": "Andhra Pradesh",
    "lat": 16.245325,
    "lon": 80.609091,
    "isMajor": false,
    "aliases": [
      "AKU",
      "ANGALAKUDURU HALT",
      "Angalakuduru Halt"
    ]
  },
  {
    "code": "AKV",
    "name": "ANKLESHWAR JN.",
    "city": "",
    "state": "",
    "lat": 21.623889,
    "lon": 73.000633,
    "isMajor": false,
    "aliases": [
      "AKV",
      "ANKLESHWAR JN.",
      "Ankleshwar Jn.",
      "ANKLESHWAR Junction.",
      "ANKLESHWAR junction.",
      "ANKLESHWAR jn."
    ]
  },
  {
    "code": "AKVD",
    "name": "AKIVIDU",
    "city": "",
    "state": "Andhra Pradesh",
    "lat": 16.582653999999998,
    "lon": 81.36905499999999,
    "isMajor": false,
    "aliases": [
      "AKVD",
      "AKIVIDU",
      "Akividu"
    ]
  },
  {
    "code": "AKVJ",
    "name": "ANKLESHWAR JN.",
    "city": "",
    "state": "",
    "lat": 21.623889,
    "lon": 73.000633,
    "isMajor": false,
    "aliases": [
      "AKVJ",
      "ANKLESHWAR JN.",
      "Ankleshwar Jn.",
      "ANKLESHWAR Junction.",
      "ANKLESHWAR junction.",
      "ANKLESHWAR jn."
    ]
  },
  {
    "code": "AKVU",
    "name": "ANKLESHWAR UDHYOG NAGAR",
    "city": "",
    "state": "",
    "lat": null,
    "lon": null,
    "isMajor": false,
    "aliases": [
      "AKVU",
      "ANKLESHWAR UDHYOG NAGAR",
      "Ankleshwar Udhyog Nagar"
    ]
  },
  {
    "code": "AKW",
    "name": "AKONA",
    "city": "",
    "state": "Uttar Pradesh",
    "lat": 25.613687,
    "lon": 80.139995,
    "isMajor": false,
    "aliases": [
      "AKW",
      "AKONA",
      "Akona"
    ]
  },
  {
    "code": "AKWS",
    "name": "KARGALI WASHERY,BERMO",
    "city": "",
    "state": "",
    "lat": null,
    "lon": null,
    "isMajor": false,
    "aliases": [
      "AKWS",
      "KARGALI WASHERY,BERMO",
      "Kargali Washery,bermo"
    ]
  },
  {
    "code": "AKY",
    "name": "AKKURTI HALT",
    "city": "",
    "state": "",
    "lat": 13.7828960127,
    "lon": 79.6686416895,
    "isMajor": false,
    "aliases": [
      "AKY",
      "AKKURTI HALT",
      "Akkurti Halt"
    ]
  },
  {
    "code": "AKZ",
    "name": "AKASHI",
    "city": "",
    "state": "Jharkhand",
    "lat": 23.385124400800002,
    "lon": 84.8877858557,
    "isMajor": false,
    "aliases": [
      "AKZ",
      "AKASHI",
      "Akashi"
    ]
  },
  {
    "code": "AL",
    "name": "ATTILI",
    "city": "",
    "state": "Andhra Pradesh",
    "lat": 16.680149999999998,
    "lon": 81.61636,
    "isMajor": false,
    "aliases": [
      "AL",
      "ATTILI",
      "Attili"
    ]
  },
  {
    "code": "ALAI",
    "name": "ALAI",
    "city": "",
    "state": "",
    "lat": 27.337097,
    "lon": 73.58576799999999,
    "isMajor": false,
    "aliases": [
      "ALAI",
      "Alai"
    ]
  },
  {
    "code": "ALAL",
    "name": "ALAL",
    "city": "",
    "state": "",
    "lat": 30.378176,
    "lon": 75.72420699999999,
    "isMajor": false,
    "aliases": [
      "ALAL",
      "Alal"
    ]
  },
  {
    "code": "ALAU",
    "name": "ALAU",
    "city": "",
    "state": "",
    "lat": null,
    "lon": null,
    "isMajor": false,
    "aliases": [
      "ALAU",
      "Alau"
    ]
  },
  {
    "code": "ALB",
    "name": "ALIA BADA",
    "city": "",
    "state": "Gujarat",
    "lat": 22.44677,
    "lon": 70.210367,
    "isMajor": false,
    "aliases": [
      "ALB",
      "ALIA BADA",
      "Alia Bada"
    ]
  },
  {
    "code": "ALBK",
    "name": "LAYABAD NO.20, KHANUDIH",
    "city": "",
    "state": "",
    "lat": null,
    "lon": null,
    "isMajor": false,
    "aliases": [
      "ALBK",
      "LAYABAD NO.20, KHANUDIH",
      "Layabad No.20, Khanudih"
    ]
  },
  {
    "code": "ALCA",
    "name": "ALIGARH C.B.A.",
    "city": "",
    "state": "",
    "lat": null,
    "lon": null,
    "isMajor": false,
    "aliases": [
      "ALCA",
      "ALIGARH C.B.A.",
      "Aligarh C.b.a."
    ]
  },
  {
    "code": "ALCK",
    "name": "LAYABAD ELECTRIC SUPPLY COKE CO. NO.28, KHANUDIH",
    "city": "",
    "state": "",
    "lat": null,
    "lon": null,
    "isMajor": false,
    "aliases": [
      "ALCK",
      "LAYABAD ELECTRIC SUPPLY COKE CO. NO.28, KHANUDIH",
      "Layabad Electric Supply Coke Co. No.28, Khanudih"
    ]
  },
  {
    "code": "ALD",
    "name": "ALLAHABAD JN.",
    "city": "",
    "state": "",
    "lat": 25.446241,
    "lon": 81.828816,
    "isMajor": false,
    "aliases": [
      "ALD",
      "ALLAHABAD JN.",
      "Allahabad Jn.",
      "ALLAHABAD Junction.",
      "ALLAHABAD junction.",
      "ALLAHABAD jn."
    ]
  },
  {
    "code": "ALE",
    "name": "AMLETHA",
    "city": "",
    "state": "",
    "lat": null,
    "lon": null,
    "isMajor": false,
    "aliases": [
      "ALE",
      "AMLETHA",
      "Amletha"
    ]
  },
  {
    "code": "ALER",
    "name": "ALER",
    "city": "",
    "state": "",
    "lat": 17.6459553,
    "lon": 79.04834140000001,
    "isMajor": false,
    "aliases": [
      "ALER",
      "Aler"
    ]
  },
  {
    "code": "ALEU",
    "name": "ALEMBIC CHEMICAL WORKS SDG, VADODRA JN.",
    "city": "",
    "state": "",
    "lat": null,
    "lon": null,
    "isMajor": false,
    "aliases": [
      "ALEU",
      "ALEMBIC CHEMICAL WORKS SDG, VADODRA JN.",
      "Alembic Chemical Works Sdg, Vadodra Jn.",
      "ALEMBIC CHEMICAL WORKS SDG, VADODRA Junction.",
      "ALEMBIC CHEMICAL WORKS SDG, VADODRA junction.",
      "ALEMBIC CHEMICAL WORKS SDG, VADODRA jn."
    ]
  },
  {
    "code": "ALGJ",
    "name": "ALIGANJ",
    "city": "",
    "state": "",
    "lat": null,
    "lon": null,
    "isMajor": false,
    "aliases": [
      "ALGJ",
      "ALIGANJ",
      "Aliganj"
    ]
  },
  {
    "code": "ALGP",
    "name": "ALGAPUR",
    "city": "",
    "state": "Assam",
    "lat": 24.754753,
    "lon": 92.59591800000001,
    "isMajor": false,
    "aliases": [
      "ALGP",
      "ALGAPUR",
      "Algapur"
    ]
  },
  {
    "code": "ALGV",
    "name": "GCT MULTI-MODEL CARGO TERMINAL OF M/S ADANI LOGI LTD.-VIROCHANNAGAR",
    "city": "",
    "state": "",
    "lat": null,
    "lon": null,
    "isMajor": false,
    "aliases": [
      "ALGV",
      "GCT MULTI-MODEL CARGO TERMINAL OF M/S ADANI LOGI LTD.-VIROCHANNAGAR",
      "Gct Multi-model Cargo Terminal Of M/s Adani Logi Ltd.-virochannagar",
      "GCT MULTI-MODEL CARGO Terminus OF M/S ADANI LOGI LTD.-VIROCHANNAGAR",
      "GCT MULTI-MODEL CARGO terminus OF M/S ADANI LOGI LTD.-VIROCHANNAGAR"
    ]
  },
  {
    "code": "ALH",
    "name": "ALAMBAGH JN.",
    "city": "",
    "state": "",
    "lat": null,
    "lon": null,
    "isMajor": false,
    "aliases": [
      "ALH",
      "ALAMBAGH JN.",
      "Alambagh Jn.",
      "ALAMBAGH Junction.",
      "ALAMBAGH junction.",
      "ALAMBAGH jn."
    ]
  },
  {
    "code": "ALIK",
    "name": "ADANI LOGISTIC LTD ICD",
    "city": "",
    "state": "",
    "lat": null,
    "lon": null,
    "isMajor": false,
    "aliases": [
      "ALIK",
      "ADANI LOGISTIC LTD ICD",
      "Adani Logistic Ltd Icd"
    ]
  },
  {
    "code": "ALJ",
    "name": "ALIGANJ",
    "city": "",
    "state": "Uttarakhand",
    "lat": 29.143805999999998,
    "lon": 78.932709,
    "isMajor": false,
    "aliases": [
      "ALJ",
      "ALIGANJ",
      "Aliganj"
    ]
  },
  {
    "code": "ALJN",
    "name": "ALIGARH JN.",
    "city": "",
    "state": "",
    "lat": 27.889584,
    "lon": 78.074559,
    "isMajor": false,
    "aliases": [
      "ALJN",
      "ALIGARH JN.",
      "Aligarh Jn.",
      "ALIGARH Junction.",
      "ALIGARH junction.",
      "ALIGARH jn."
    ]
  },
  {
    "code": "ALK",
    "name": "ALAKKUDI",
    "city": "",
    "state": "Tamil Nadu",
    "lat": 10.77766297,
    "lon": 79.0537095,
    "isMajor": false,
    "aliases": [
      "ALK",
      "ALAKKUDI",
      "Alakkudi"
    ]
  },
  {
    "code": "ALKF",
    "name": "ALAKKUDI",
    "city": "",
    "state": "Tamil Nadu",
    "lat": 10.77766297,
    "lon": 79.0537095,
    "isMajor": false,
    "aliases": [
      "ALKF",
      "ALAKKUDI",
      "Alakkudi"
    ]
  },
  {
    "code": "ALLP",
    "name": "ALLEPPEY",
    "city": "",
    "state": "",
    "lat": 9.483759,
    "lon": 76.32247600000001,
    "isMajor": false,
    "aliases": [
      "ALLP",
      "ALLEPPEY",
      "Alleppey"
    ]
  },
  {
    "code": "ALM",
    "name": "ALAMANDA",
    "city": "",
    "state": "",
    "lat": 18.012510000000002,
    "lon": 83.271604,
    "isMajor": false,
    "aliases": [
      "ALM",
      "ALAMANDA",
      "Alamanda"
    ]
  },
  {
    "code": "ALMR",
    "name": "ALAMPUR",
    "city": "",
    "state": "Gujarat",
    "lat": 21.944012999999998,
    "lon": 71.699156,
    "isMajor": false,
    "aliases": [
      "ALMR",
      "ALAMPUR",
      "Alampur"
    ]
  },
  {
    "code": "ALMW",
    "name": "ALMAW HALT",
    "city": "",
    "state": "Uttar Pradesh",
    "lat": 25.259915,
    "lon": 82.489941,
    "isMajor": false,
    "aliases": [
      "ALMW",
      "ALMAW HALT",
      "Almaw Halt"
    ]
  },
  {
    "code": "ALN",
    "name": "ALANDI",
    "city": "",
    "state": "Maharashtra",
    "lat": 18.451229,
    "lon": 74.09309499999999,
    "isMajor": false,
    "aliases": [
      "ALN",
      "ALANDI",
      "Alandi"
    ]
  },
  {
    "code": "ALNI",
    "name": "ALNIYA",
    "city": "",
    "state": "",
    "lat": 25.0316757156,
    "lon": 75.90874587280001,
    "isMajor": false,
    "aliases": [
      "ALNI",
      "ALNIYA",
      "Alniya"
    ]
  },
  {
    "code": "ALNP",
    "name": "AKELAHANSPUR(HALT)",
    "city": "",
    "state": "Uttar Pradesh",
    "lat": 28.34054,
    "lon": 80.31557099999999,
    "isMajor": false,
    "aliases": [
      "ALNP",
      "AKELAHANSPUR(HALT)",
      "Akelahanspur(halt)"
    ]
  },
  {
    "code": "ALO",
    "name": "AMALA HALT",
    "city": "",
    "state": "",
    "lat": null,
    "lon": null,
    "isMajor": false,
    "aliases": [
      "ALO",
      "AMALA HALT",
      "Amala Halt"
    ]
  },
  {
    "code": "ALP",
    "name": "ALAPPAKKAM",
    "city": "",
    "state": "Tamil Nadu",
    "lat": 11.6178033436,
    "lon": 79.7272273724,
    "isMajor": false,
    "aliases": [
      "ALP",
      "ALAPPAKKAM",
      "Alappakkam"
    ]
  },
  {
    "code": "ALPR",
    "name": "ALAM PUR ROAD",
    "city": "",
    "state": "",
    "lat": 15.895657,
    "lon": 78.047012,
    "isMajor": false,
    "aliases": [
      "ALPR",
      "ALAM PUR ROAD",
      "Alam Pur Road",
      "ALAM PUR road"
    ]
  },
  {
    "code": "ALQ",
    "name": "AULANT",
    "city": "",
    "state": "",
    "lat": null,
    "lon": null,
    "isMajor": false,
    "aliases": [
      "ALQ",
      "AULANT",
      "Aulant"
    ]
  },
  {
    "code": "ALS",
    "name": "AMLORI SARSAR",
    "city": "",
    "state": "Bihar",
    "lat": 26.2947140024,
    "lon": 84.3455775659,
    "isMajor": false,
    "aliases": [
      "ALS",
      "AMLORI SARSAR",
      "Amlori Sarsar"
    ]
  },
  {
    "code": "ALSR",
    "name": "ALISAGAR",
    "city": "",
    "state": "",
    "lat": null,
    "lon": null,
    "isMajor": false,
    "aliases": [
      "ALSR",
      "ALISAGAR",
      "Alisagar"
    ]
  },
  {
    "code": "ALU",
    "name": "ARIYALUR",
    "city": "",
    "state": "",
    "lat": 11.150035,
    "lon": 79.06831799999999,
    "isMajor": false,
    "aliases": [
      "ALU",
      "ARIYALUR",
      "Ariyalur"
    ]
  },
  {
    "code": "ALUH",
    "name": "ALAULI",
    "city": "",
    "state": "",
    "lat": null,
    "lon": null,
    "isMajor": false,
    "aliases": [
      "ALUH",
      "ALAULI",
      "Alauli"
    ]
  },
  {
    "code": "ALUR",
    "name": "ALUR HALT",
    "city": "",
    "state": "Karnataka",
    "lat": 12.98251226,
    "lon": 75.99049337,
    "isMajor": false,
    "aliases": [
      "ALUR",
      "ALUR HALT",
      "Alur Halt"
    ]
  },
  {
    "code": "ALUS",
    "name": "ARIYALUR CEMENT PROJECT SIDING, ARIYALUR",
    "city": "",
    "state": "",
    "lat": null,
    "lon": null,
    "isMajor": false,
    "aliases": [
      "ALUS",
      "ARIYALUR CEMENT PROJECT SIDING, ARIYALUR",
      "Ariyalur Cement Project Siding, Ariyalur"
    ]
  },
  {
    "code": "ALV",
    "name": "ANKLAV",
    "city": "",
    "state": "Gujarat",
    "lat": 22.392856,
    "lon": 72.999264,
    "isMajor": false,
    "aliases": [
      "ALV",
      "ANKLAV",
      "Anklav"
    ]
  },
  {
    "code": "ALW",
    "name": "ALWAL HALT",
    "city": "",
    "state": "Andhra Pradesh",
    "lat": 17.505779,
    "lon": 78.515006,
    "isMajor": false,
    "aliases": [
      "ALW",
      "ALWAL HALT",
      "Alwal Halt"
    ]
  },
  {
    "code": "ALWL",
    "name": "ALWAL HALT",
    "city": "",
    "state": "",
    "lat": null,
    "lon": null,
    "isMajor": false,
    "aliases": [
      "ALWL",
      "ALWAL HALT",
      "Alwal Halt"
    ]
  },
  {
    "code": "ALY",
    "name": "ALLAHABAD CITY",
    "city": "",
    "state": "Uttar Pradesh",
    "lat": 25.442410000000002,
    "lon": 81.829736,
    "isMajor": false,
    "aliases": [
      "ALY",
      "ALLAHABAD CITY",
      "Allahabad City",
      "ALLAHABAD city"
    ]
  },
  {
    "code": "AMA",
    "name": "ATAMANDA",
    "city": "",
    "state": "Uttar Pradesh",
    "lat": 28.58606,
    "lon": 79.468143,
    "isMajor": false,
    "aliases": [
      "AMA",
      "ATAMANDA",
      "Atamanda"
    ]
  },
  {
    "code": "AMB",
    "name": "AMBODALA",
    "city": "",
    "state": "",
    "lat": 19.8363234649,
    "lon": 83.45635247989999,
    "isMajor": false,
    "aliases": [
      "AMB",
      "AMBODALA",
      "Ambodala"
    ]
  },
  {
    "code": "AMBK",
    "name": "MOHALBONI SDG NO.11,KHANUDIH",
    "city": "",
    "state": "",
    "lat": null,
    "lon": null,
    "isMajor": false,
    "aliases": [
      "AMBK",
      "MOHALBONI SDG NO.11,KHANUDIH",
      "Mohalboni Sdg No.11,khanudih"
    ]
  },
  {
    "code": "AMBR",
    "name": "AMBIKA",
    "city": "",
    "state": "Maharashtra",
    "lat": 18.442254377900003,
    "lon": 76.9437206531,
    "isMajor": false,
    "aliases": [
      "AMBR",
      "AMBIKA",
      "Ambika"
    ]
  },
  {
    "code": "AMBT",
    "name": "AMBALTEK",
    "city": "",
    "state": "",
    "lat": null,
    "lon": null,
    "isMajor": false,
    "aliases": [
      "AMBT",
      "AMBALTEK",
      "Ambaltek"
    ]
  },
  {
    "code": "AMC",
    "name": "AMRITA PURA",
    "city": "",
    "state": "Karnataka",
    "lat": 14.1395487324,
    "lon": 76.24556342560001,
    "isMajor": false,
    "aliases": [
      "AMC",
      "AMRITA PURA",
      "Amrita Pura"
    ]
  },
  {
    "code": "AMD",
    "name": "AMILA",
    "city": "",
    "state": "",
    "lat": null,
    "lon": null,
    "isMajor": false,
    "aliases": [
      "AMD",
      "AMILA",
      "Amila"
    ]
  },
  {
    "code": "AMDD",
    "name": "AMDANDA",
    "city": "",
    "state": "",
    "lat": null,
    "lon": null,
    "isMajor": false,
    "aliases": [
      "AMDD",
      "AMDANDA",
      "Amdanda"
    ]
  },
  {
    "code": "AMDI",
    "name": "AMDI HALT",
    "city": "",
    "state": "Maharashtra",
    "lat": 21.352410000000003,
    "lon": 79.31875600000001,
    "isMajor": false,
    "aliases": [
      "AMDI",
      "AMDI HALT",
      "Amdi Halt"
    ]
  },
  {
    "code": "AME",
    "name": "AMETHI",
    "city": "",
    "state": "",
    "lat": 26.153024000000002,
    "lon": 81.806276,
    "isMajor": false,
    "aliases": [
      "AME",
      "AMETHI",
      "Amethi"
    ]
  },
  {
    "code": "AMG",
    "name": "ALAMNAGAR",
    "city": "",
    "state": "",
    "lat": 26.84708,
    "lon": 80.86031200000001,
    "isMajor": false,
    "aliases": [
      "AMG",
      "ALAMNAGAR",
      "Alamnagar"
    ]
  },
  {
    "code": "AMGA",
    "name": "AMJONGA",
    "city": "",
    "state": "",
    "lat": 25.9816211386,
    "lon": 90.8529670435,
    "isMajor": false,
    "aliases": [
      "AMGA",
      "AMJONGA",
      "Amjonga"
    ]
  },
  {
    "code": "AMGD",
    "name": "ALLAHBAD MALKAGANJ GOODS DEPOT SIDING, ALLAHABAD",
    "city": "",
    "state": "",
    "lat": null,
    "lon": null,
    "isMajor": false,
    "aliases": [
      "AMGD",
      "ALLAHBAD MALKAGANJ GOODS DEPOT SIDING, ALLAHABAD",
      "Allahbad Malkaganj Goods Depot Siding, Allahabad"
    ]
  },
  {
    "code": "AMH",
    "name": "AZAM GARH",
    "city": "",
    "state": "",
    "lat": 26.038607,
    "lon": 83.160614,
    "isMajor": false,
    "aliases": [
      "AMH",
      "AZAM GARH",
      "Azam Garh"
    ]
  },
  {
    "code": "AMI",
    "name": "AMRAVATI",
    "city": "",
    "state": "Maharashtra",
    "lat": 20.930082900000002,
    "lon": 77.7577863,
    "isMajor": false,
    "aliases": [
      "AMI",
      "AMRAVATI",
      "Amravati"
    ]
  },
  {
    "code": "AMIN",
    "name": "AMIN",
    "city": "",
    "state": "",
    "lat": 29.904968,
    "lon": 76.900028,
    "isMajor": false,
    "aliases": [
      "AMIN",
      "Amin"
    ]
  },
  {
    "code": "AMJ",
    "name": "AMIN GAON",
    "city": "",
    "state": "",
    "lat": null,
    "lon": null,
    "isMajor": false,
    "aliases": [
      "AMJ",
      "AMIN GAON",
      "Amin Gaon"
    ]
  },
  {
    "code": "AML",
    "name": "AMALSAD",
    "city": "",
    "state": "Gujarat",
    "lat": 20.811373000000003,
    "lon": 72.956092,
    "isMajor": false,
    "aliases": [
      "AML",
      "AMALSAD",
      "Amalsad"
    ]
  },
  {
    "code": "AMLA",
    "name": "AMLA JN.",
    "city": "",
    "state": "",
    "lat": 21.919717000000002,
    "lon": 78.123187,
    "isMajor": false,
    "aliases": [
      "AMLA",
      "AMLA JN.",
      "Amla Jn.",
      "AMLA Junction.",
      "AMLA junction.",
      "AMLA jn."
    ]
  },
  {
    "code": "AMLG",
    "name": "AHLUWALIA MINNING PVT. LTD. SDG, SATNA",
    "city": "",
    "state": "",
    "lat": null,
    "lon": null,
    "isMajor": false,
    "aliases": [
      "AMLG",
      "AHLUWALIA MINNING PVT. LTD. SDG, SATNA",
      "Ahluwalia Minning Pvt. Ltd. Sdg, Satna"
    ]
  },
  {
    "code": "AMLI",
    "name": "AMLI",
    "city": "",
    "state": "",
    "lat": 25.828156,
    "lon": 76.286156,
    "isMajor": false,
    "aliases": [
      "AMLI",
      "Amli"
    ]
  },
  {
    "code": "AMLO",
    "name": "AMLO",
    "city": "",
    "state": "",
    "lat": 23.768893,
    "lon": 85.98023400000001,
    "isMajor": false,
    "aliases": [
      "AMLO",
      "Amlo"
    ]
  },
  {
    "code": "AMLP",
    "name": "AMALPUR",
    "city": "",
    "state": "Gujarat",
    "lat": 22.161144,
    "lon": 73.508313,
    "isMajor": false,
    "aliases": [
      "AMLP",
      "AMALPUR",
      "Amalpur"
    ]
  },
  {
    "code": "AMLR",
    "name": "AMALANAGAR",
    "city": "",
    "state": "Kerala",
    "lat": 10.561834,
    "lon": 76.171838,
    "isMajor": false,
    "aliases": [
      "AMLR",
      "AMALANAGAR",
      "Amalanagar"
    ]
  },
  {
    "code": "AMLX",
    "name": "AMLA JN. YARD",
    "city": "",
    "state": "",
    "lat": null,
    "lon": null,
    "isMajor": false,
    "aliases": [
      "AMLX",
      "AMLA JN. YARD",
      "Amla Jn. Yard",
      "AMLA Junction. YARD",
      "AMLA junction. YARD",
      "AMLA jn. YARD"
    ]
  },
  {
    "code": "AMM",
    "name": "ADIRAMPATTINAM",
    "city": "",
    "state": "Tamil Nadu",
    "lat": 10.332285228976446,
    "lon": 79.38580758869648,
    "isMajor": false,
    "aliases": [
      "AMM",
      "ADIRAMPATTINAM",
      "Adirampattinam"
    ]
  },
  {
    "code": "AMNA",
    "name": "AMAN LODGE",
    "city": "",
    "state": "",
    "lat": 18.997761,
    "lon": 73.27608000000001,
    "isMajor": false,
    "aliases": [
      "AMNA",
      "AMAN LODGE",
      "Aman Lodge"
    ]
  },
  {
    "code": "AMNR",
    "name": "AMMANUR",
    "city": "",
    "state": "",
    "lat": null,
    "lon": null,
    "isMajor": false,
    "aliases": [
      "AMNR",
      "AMMANUR",
      "Ammanur"
    ]
  },
  {
    "code": "AMO",
    "name": "AMOLWA",
    "city": "",
    "state": "Bihar",
    "lat": 27.211161,
    "lon": 84.478487,
    "isMajor": false,
    "aliases": [
      "AMO",
      "AMOLWA",
      "Amolwa"
    ]
  },
  {
    "code": "AMOD",
    "name": "AMOD",
    "city": "",
    "state": "Gujarat",
    "lat": 21.990791167399735,
    "lon": 72.86546467803419,
    "isMajor": false,
    "aliases": [
      "AMOD",
      "Amod"
    ]
  },
  {
    "code": "AMP",
    "name": "AHMADPUR JN.",
    "city": "",
    "state": "",
    "lat": 23.8325090573,
    "lon": 87.6928410938,
    "isMajor": false,
    "aliases": [
      "AMP",
      "AHMADPUR JN.",
      "Ahmadpur Jn.",
      "AHMADPUR Junction.",
      "AHMADPUR junction.",
      "AHMADPUR jn."
    ]
  },
  {
    "code": "AMPA",
    "name": "AMBALA PUZHA",
    "city": "",
    "state": "Kerala",
    "lat": 9.386059,
    "lon": 76.363817,
    "isMajor": false,
    "aliases": [
      "AMPA",
      "AMBALA PUZHA",
      "Ambala Puzha"
    ]
  },
  {
    "code": "AMPL",
    "name": "AMMAPALLI HALT",
    "city": "",
    "state": "",
    "lat": 25.2724414889,
    "lon": 87.4585745682,
    "isMajor": false,
    "aliases": [
      "AMPL",
      "AMMAPALLI HALT",
      "Ammapalli Halt"
    ]
  },
  {
    "code": "AMPR",
    "name": "AMAR PURA RATHAN HALT",
    "city": "",
    "state": "Rajasthan",
    "lat": 29.483399000000002,
    "lon": 74.078953,
    "isMajor": false,
    "aliases": [
      "AMPR",
      "AMAR PURA RATHAN HALT",
      "Amar Pura Rathan Halt"
    ]
  },
  {
    "code": "AMPS",
    "name": "SARGUJA RAIL CORRIDOR PVT. LTD.",
    "city": "",
    "state": "",
    "lat": null,
    "lon": null,
    "isMajor": false,
    "aliases": [
      "AMPS",
      "SARGUJA RAIL CORRIDOR PVT. LTD.",
      "Sarguja Rail Corridor Pvt. Ltd."
    ]
  },
  {
    "code": "AMQ",
    "name": "AMMUGUDA HALT",
    "city": "",
    "state": "Andhra Pradesh",
    "lat": 17.487039,
    "lon": 78.527215,
    "isMajor": false,
    "aliases": [
      "AMQ",
      "AMMUGUDA HALT",
      "Ammuguda Halt"
    ]
  },
  {
    "code": "AMQF",
    "name": "AMMUGUDA HALT",
    "city": "",
    "state": "",
    "lat": null,
    "lon": null,
    "isMajor": false,
    "aliases": [
      "AMQF",
      "AMMUGUDA HALT",
      "Ammuguda Halt"
    ]
  },
  {
    "code": "AMQX",
    "name": "AMMUGUDA CHORD LINE",
    "city": "",
    "state": "",
    "lat": null,
    "lon": null,
    "isMajor": false,
    "aliases": [
      "AMQX",
      "AMMUGUDA CHORD LINE",
      "Ammuguda Chord Line"
    ]
  },
  {
    "code": "AMRD",
    "name": "METHANI SIDING, RADHANAGAR",
    "city": "",
    "state": "",
    "lat": null,
    "lon": null,
    "isMajor": false,
    "aliases": [
      "AMRD",
      "METHANI SIDING, RADHANAGAR",
      "Methani Siding, Radhanagar"
    ]
  },
  {
    "code": "AMRI",
    "name": "ANAJMANDI REWARI",
    "city": "",
    "state": "",
    "lat": 28.187504999999998,
    "lon": 76.605319,
    "isMajor": false,
    "aliases": [
      "AMRI",
      "ANAJMANDI REWARI",
      "Anajmandi Rewari"
    ]
  },
  {
    "code": "AMRO",
    "name": "AMROHA",
    "city": "",
    "state": "",
    "lat": 28.892688,
    "lon": 78.474329,
    "isMajor": false,
    "aliases": [
      "AMRO",
      "AMROHA",
      "Amroha"
    ]
  },
  {
    "code": "AMS",
    "name": "AMAUSI",
    "city": "",
    "state": "",
    "lat": 26.77443,
    "lon": 80.841544,
    "isMajor": false,
    "aliases": [
      "AMS",
      "AMAUSI",
      "Amausi"
    ]
  },
  {
    "code": "AMSA",
    "name": "AMMASANDRA",
    "city": "",
    "state": "Karnataka",
    "lat": 13.264571,
    "lon": 76.71148570000001,
    "isMajor": false,
    "aliases": [
      "AMSA",
      "AMMASANDRA",
      "Ammasandra"
    ]
  },
  {
    "code": "AMSC",
    "name": "MYSORE CEMENT SDG, AMMASANDRA",
    "city": "",
    "state": "",
    "lat": null,
    "lon": null,
    "isMajor": false,
    "aliases": [
      "AMSC",
      "MYSORE CEMENT SDG, AMMASANDRA",
      "Mysore Cement Sdg, Ammasandra"
    ]
  },
  {
    "code": "AMSG",
    "name": "AIR FORCE SIDING, AMLA",
    "city": "",
    "state": "",
    "lat": null,
    "lon": null,
    "isMajor": false,
    "aliases": [
      "AMSG",
      "AIR FORCE SIDING, AMLA",
      "Air Force Siding, Amla"
    ]
  },
  {
    "code": "AMSK",
    "name": "MOHALBONI SDG NO.9,KHANUDIH",
    "city": "",
    "state": "",
    "lat": null,
    "lon": null,
    "isMajor": false,
    "aliases": [
      "AMSK",
      "MOHALBONI SDG NO.9,KHANUDIH",
      "Mohalboni Sdg No.9,khanudih"
    ]
  },
  {
    "code": "AMSP",
    "name": "ADDITIONAL MILITARY SIDING, POKARAN",
    "city": "",
    "state": "",
    "lat": null,
    "lon": null,
    "isMajor": false,
    "aliases": [
      "AMSP",
      "ADDITIONAL MILITARY SIDING, POKARAN",
      "Additional Military Siding, Pokaran"
    ]
  },
  {
    "code": "AMSS",
    "name": "AMBICA STEEL TUBES LTD. SDG, VATVA",
    "city": "",
    "state": "",
    "lat": null,
    "lon": null,
    "isMajor": false,
    "aliases": [
      "AMSS",
      "AMBICA STEEL TUBES LTD. SDG, VATVA",
      "Ambica Steel Tubes Ltd. Sdg, Vatva"
    ]
  },
  {
    "code": "AMT",
    "name": "AMMAPET",
    "city": "",
    "state": "Tamil Nadu",
    "lat": 10.779506,
    "lon": 79.31573800000001,
    "isMajor": false,
    "aliases": [
      "AMT",
      "AMMAPET",
      "Ammapet"
    ]
  },
  {
    "code": "AMV",
    "name": "LUCKNOW",
    "city": "",
    "state": "",
    "lat": 26.794514000000003,
    "lon": 80.87313999999999,
    "isMajor": false,
    "aliases": [
      "AMV",
      "LUCKNOW",
      "Lucknow"
    ]
  },
  {
    "code": "AMVA",
    "name": "AMARAVILA HALT",
    "city": "",
    "state": "Kerala",
    "lat": 8.397108999999999,
    "lon": 77.10036199999999,
    "isMajor": false,
    "aliases": [
      "AMVA",
      "AMARAVILA HALT",
      "Amaravila Halt"
    ]
  },
  {
    "code": "AMVM",
    "name": "LUCKNOW",
    "city": "",
    "state": "",
    "lat": 26.830675,
    "lon": 80.925291,
    "isMajor": false,
    "aliases": [
      "AMVM",
      "LUCKNOW",
      "Lucknow"
    ]
  },
  {
    "code": "AMW",
    "name": "AMANVADI",
    "city": "",
    "state": "Maharashtra",
    "lat": 20.300507,
    "lon": 77.065281,
    "isMajor": false,
    "aliases": [
      "AMW",
      "AMANVADI",
      "Amanvadi"
    ]
  },
  {
    "code": "AMWM",
    "name": "MURULIDIH WASHERY,MAHUDA",
    "city": "",
    "state": "",
    "lat": null,
    "lon": null,
    "isMajor": false,
    "aliases": [
      "AMWM",
      "MURULIDIH WASHERY,MAHUDA",
      "Murulidih Washery,mahuda"
    ]
  },
  {
    "code": "AMX",
    "name": "AMLAKHURD HALT",
    "city": "",
    "state": "Madhya Pradesh",
    "lat": 21.510235,
    "lon": 76.65068500000001,
    "isMajor": false,
    "aliases": [
      "AMX",
      "AMLAKHURD HALT",
      "Amlakhurd Halt"
    ]
  },
  {
    "code": "AMY",
    "name": "AKATHUMURI HALT",
    "city": "",
    "state": "",
    "lat": 8.70031,
    "lon": 76.758792,
    "isMajor": false,
    "aliases": [
      "AMY",
      "AKATHUMURI HALT",
      "Akathumuri Halt"
    ]
  },
  {
    "code": "AMZ",
    "name": "AMTA",
    "city": "",
    "state": "",
    "lat": null,
    "lon": null,
    "isMajor": false,
    "aliases": [
      "AMZ",
      "AMTA",
      "Amta"
    ]
  },
  {
    "code": "AN",
    "name": "AMALNER",
    "city": "",
    "state": "",
    "lat": 21.049008999999998,
    "lon": 75.057314,
    "isMajor": false,
    "aliases": [
      "AN",
      "AMALNER",
      "Amalner"
    ]
  },
  {
    "code": "ANA",
    "name": "ASLANA",
    "city": "",
    "state": "",
    "lat": 23.860522,
    "lon": 79.319493,
    "isMajor": false,
    "aliases": [
      "ANA",
      "ASLANA",
      "Aslana"
    ]
  },
  {
    "code": "ANAH",
    "name": "AUNTA HALT",
    "city": "",
    "state": "",
    "lat": 25.3804334414,
    "lon": 85.94936398009999,
    "isMajor": false,
    "aliases": [
      "ANAH",
      "AUNTA HALT",
      "Aunta Halt"
    ]
  },
  {
    "code": "ANAS",
    "name": "ANAS",
    "city": "",
    "state": "",
    "lat": 22.866009,
    "lon": 74.421513,
    "isMajor": false,
    "aliases": [
      "ANAS",
      "Anas"
    ]
  },
  {
    "code": "ANB",
    "name": "AMMANABROLU",
    "city": "",
    "state": "",
    "lat": 15.596402,
    "lon": 80.148353,
    "isMajor": false,
    "aliases": [
      "ANB",
      "AMMANABROLU",
      "Ammanabrolu"
    ]
  },
  {
    "code": "ANC",
    "name": "ANNECHAKANAHALLI",
    "city": "",
    "state": "Karnataka",
    "lat": 12.7379,
    "lon": 76.282814,
    "isMajor": false,
    "aliases": [
      "ANC",
      "ANNECHAKANAHALLI",
      "Annechakanahalli"
    ]
  },
  {
    "code": "ANCR",
    "name": "ANCHURI",
    "city": "",
    "state": "West Bengal",
    "lat": 23.283904,
    "lon": 86.993174,
    "isMajor": false,
    "aliases": [
      "ANCR",
      "ANCHURI",
      "Anchuri"
    ]
  },
  {
    "code": "AND",
    "name": "ANDAMPALLAM",
    "city": "",
    "state": "Tamil Nadu",
    "lat": 12.088426380000001,
    "lon": 79.16898527,
    "isMajor": false,
    "aliases": [
      "AND",
      "ANDAMPALLAM",
      "Andampallam"
    ]
  },
  {
    "code": "ANDB",
    "name": "AMMUNITION DEPOT, BHARATPUR",
    "city": "",
    "state": "",
    "lat": null,
    "lon": null,
    "isMajor": false,
    "aliases": [
      "ANDB",
      "AMMUNITION DEPOT, BHARATPUR",
      "Ammunition Depot, Bharatpur"
    ]
  },
  {
    "code": "ANDI",
    "name": "ADARSH NAGAR DELHI",
    "city": "",
    "state": "",
    "lat": 28.714205,
    "lon": 77.16670699999999,
    "isMajor": false,
    "aliases": [
      "ANDI",
      "ADARSH NAGAR DELHI",
      "Adarsh Nagar Delhi"
    ]
  },
  {
    "code": "ANDM",
    "name": "NORTH DAMODAR MAIN, MAHUDA",
    "city": "",
    "state": "",
    "lat": null,
    "lon": null,
    "isMajor": false,
    "aliases": [
      "ANDM",
      "NORTH DAMODAR MAIN, MAHUDA",
      "North Damodar Main, Mahuda"
    ]
  },
  {
    "code": "ANDN",
    "name": "ANAND NAGAR",
    "city": "",
    "state": "Uttar Pradesh",
    "lat": 27.103714,
    "lon": 83.270698,
    "isMajor": false,
    "aliases": [
      "ANDN",
      "ANAND NAGAR",
      "Anand Nagar"
    ]
  },
  {
    "code": "ANE",
    "name": "ANANTARAJUPET",
    "city": "",
    "state": "",
    "lat": 13.999592,
    "lon": 79.30246799999999,
    "isMajor": false,
    "aliases": [
      "ANE",
      "ANANTARAJUPET",
      "Anantarajupet"
    ]
  },
  {
    "code": "ANF",
    "name": "ANANDAPURAM HALT",
    "city": "",
    "state": "Karnataka",
    "lat": 14.073324,
    "lon": 75.209164,
    "isMajor": false,
    "aliases": [
      "ANF",
      "ANANDAPURAM HALT",
      "Anandapuram Halt"
    ]
  },
  {
    "code": "ANG",
    "name": "AHMADNAGAR",
    "city": "",
    "state": "",
    "lat": 19.075519477700002,
    "lon": 74.721882467,
    "isMajor": false,
    "aliases": [
      "ANG",
      "AHMADNAGAR",
      "Ahmadnagar"
    ]
  },
  {
    "code": "ANGL",
    "name": "ANGUL",
    "city": "",
    "state": "",
    "lat": 20.859445,
    "lon": 85.099994,
    "isMajor": false,
    "aliases": [
      "ANGL",
      "ANGUL",
      "Angul"
    ]
  },
  {
    "code": "ANGM",
    "name": "AUNGARIDHAM HALT",
    "city": "",
    "state": "",
    "lat": 25.1913324416,
    "lon": 85.2261571069,
    "isMajor": false,
    "aliases": [
      "ANGM",
      "AUNGARIDHAM HALT",
      "Aungaridham Halt"
    ]
  },
  {
    "code": "ANGR",
    "name": "ANGADGERI HALT",
    "city": "",
    "state": "Karnataka",
    "lat": 16.451873659999997,
    "lon": 75.84589116000001,
    "isMajor": false,
    "aliases": [
      "ANGR",
      "ANGADGERI HALT",
      "Angadgeri Halt"
    ]
  },
  {
    "code": "ANH",
    "name": "ANKORAH",
    "city": "",
    "state": "",
    "lat": 24.761166999999997,
    "lon": 84.169539,
    "isMajor": false,
    "aliases": [
      "ANH",
      "ANKORAH",
      "Ankorah"
    ]
  },
  {
    "code": "ANI",
    "name": "AJANTI",
    "city": "",
    "state": "Madhya Pradesh",
    "lat": 21.893954,
    "lon": 76.285956,
    "isMajor": false,
    "aliases": [
      "ANI",
      "AJANTI",
      "Ajanti"
    ]
  },
  {
    "code": "ANJ",
    "name": "ANJAN GAON",
    "city": "",
    "state": "Maharashtra",
    "lat": 21.163199753077336,
    "lon": 77.31896504759789,
    "isMajor": false,
    "aliases": [
      "ANJ",
      "ANJAN GAON",
      "Anjan Gaon"
    ]
  },
  {
    "code": "ANJE",
    "name": "ANGARPATHRA HALT(E)",
    "city": "",
    "state": "",
    "lat": 23.793062,
    "lon": 86.319368,
    "isMajor": false,
    "aliases": [
      "ANJE",
      "ANGARPATHRA HALT(E)",
      "Angarpathra Halt(e)"
    ]
  },
  {
    "code": "ANK",
    "name": "ANKAI",
    "city": "",
    "state": "",
    "lat": 20.1510279143,
    "lon": 74.4697560736,
    "isMajor": false,
    "aliases": [
      "ANK",
      "ANKAI",
      "Ankai"
    ]
  },
  {
    "code": "ANKC",
    "name": "ANKAI",
    "city": "",
    "state": "",
    "lat": 20.1510279143,
    "lon": 74.4697560736,
    "isMajor": false,
    "aliases": [
      "ANKC",
      "ANKAI",
      "Ankai"
    ]
  },
  {
    "code": "ANKI",
    "name": "ANAKHI",
    "city": "",
    "state": "",
    "lat": null,
    "lon": null,
    "isMajor": false,
    "aliases": [
      "ANKI",
      "ANAKHI",
      "Anakhi"
    ]
  },
  {
    "code": "ANKL",
    "name": "ANKOLA",
    "city": "",
    "state": "Karnataka",
    "lat": 14.645347,
    "lon": 74.332936,
    "isMajor": false,
    "aliases": [
      "ANKL",
      "ANKOLA",
      "Ankola"
    ]
  },
  {
    "code": "ANKX",
    "name": "ANKAI MANMAD DIRECT",
    "city": "",
    "state": "",
    "lat": null,
    "lon": null,
    "isMajor": false,
    "aliases": [
      "ANKX",
      "ANKAI MANMAD DIRECT",
      "Ankai Manmad Direct"
    ]
  },
  {
    "code": "ANKY",
    "name": "ANKAI",
    "city": "",
    "state": "",
    "lat": 20.1510279143,
    "lon": 74.4697560736,
    "isMajor": false,
    "aliases": [
      "ANKY",
      "ANKAI",
      "Ankai"
    ]
  },
  {
    "code": "ANL",
    "name": "ANTROLI",
    "city": "",
    "state": "",
    "lat": null,
    "lon": null,
    "isMajor": false,
    "aliases": [
      "ANL",
      "ANTROLI",
      "Antroli"
    ]
  },
  {
    "code": "ANM",
    "name": "ANAIMALAI ROAD",
    "city": "",
    "state": "",
    "lat": 10.624894,
    "lon": 76.935071,
    "isMajor": false,
    "aliases": [
      "ANM",
      "ANAIMALAI ROAD",
      "Anaimalai Road",
      "ANAIMALAI road"
    ]
  },
  {
    "code": "ANMD",
    "name": "ARANGMAHANADI",
    "city": "",
    "state": "",
    "lat": 21.189614,
    "lon": 81.955513,
    "isMajor": false,
    "aliases": [
      "ANMD",
      "ARANGMAHANADI",
      "Arangmahanadi"
    ]
  },
  {
    "code": "ANND",
    "name": "ANAND JN.",
    "city": "",
    "state": "",
    "lat": 22.561307,
    "lon": 72.965733,
    "isMajor": false,
    "aliases": [
      "ANND",
      "ANAND JN.",
      "Anand Jn.",
      "ANAND Junction.",
      "ANAND junction.",
      "ANAND jn."
    ]
  },
  {
    "code": "ANNG",
    "name": "ANNANAGAR",
    "city": "",
    "state": "",
    "lat": null,
    "lon": null,
    "isMajor": false,
    "aliases": [
      "ANNG",
      "ANNANAGAR",
      "Annanagar"
    ]
  },